property_id,title,price,price_per_sqft,bhk_count,super_area,floor,transaction,furnishing_status,bathroom_count,property_type,latitude,longitude,locality,dist_to_centre_km,dist_to_airport_km,dist_to_metro_km,accessibility_score,price_standard_scaled,price_per_sqft_standard_scaled,super_area_standard_scaled
1,"8 BHK Flat  for Sale in Rajajinagar, Bangalore",448300000.0,34936.0,8.0,8983.0,2.0,Resale,Semi,9.0,apartment,13.0098587,77.55329844,Rajajinagar,-0.2164807445168451,-0.2114187069491339,-1.117091447538699,0.6335,1.9047454346130022,0.12708522069030098,3.6125783645921397
2,"2 BHK Flat  for Sale in Rajajinagar, Bangalore",50000000.0,27778.0,2.0,1500.0,16.0,Resale,Semi,3.0,apartment,12.99488039,77.55623702,Prakash Nagar,-0.2198979135362648,-0.21026635859831994,-1.131402230635082,0.6348,0.08210085405035515,0.08122715932671402,-0.2805214647888517
3,"2 BHK Flat  for Sale in Sarjapur Road, Bangalore",18400000.0,12813.0,2.0,1436.0,1.0,New Property,Unfurnished,2.0,apartment,12.899052,77.678117,Kasavanahalli,-0.20439755608218224,-0.191411555410002,1.015215233822327,0.4363,-0.06250263263249609,-0.014646812216465434,-0.31381805560542037
4,"2 BHK Flat  for Sale in Kanakapura Road, Bangalore",17100000.0,11732.0,2.0,1460.0,1.0,New Property,Unfurnished,2.0,apartment,12.89855376617697,77.56501055733317,Vikram Nagar,-0.2112121986223507,-0.2010277037167943,-1.0807640750632663,0.6297,-0.06845151024919566,-0.021572289212000148,-0.3013318340492071
5,"2 BHK Flat  for Sale in Kanakapura Road, Bangalore",21000000.0,16484.0,2.0,1274.0,21.0,Resale,Semi,2.0,apartment,12.746104,77.487602,Kanakapura,-0.18806013993458182,-0.17349055174734365,1.015215233822327,0.4338,-0.050604877399096936,0.008871620762820352,-0.39810005110985985
6,"2 BHK Flat  for Sale in Whitefield, Bangalore",26000000.0,17508.0,2.0,1485.0,15.0,Resale,Semi,2.0,apartment,12.9680475,77.739097,Palm Meadows,-0.20176820700960277,-0.20705766448355348,-1.0565458267463108,0.6272,-0.027724578873329332,0.015431924595778305,-0.28832535326148495
7,"2 BHK Flat  for Sale in Hennur Main Road, Bangalore",14300000.0,11607.0,2.0,924.0,10.0,Resale,Semi,2.0,apartment,13.0231661,77.6309661,HBR Layout 2nd Block,-0.21265981777466972,-0.21209422149961105,1.015215233822327,0.4381,-0.08126447742362551,-0.022373107550984275,-0.5801907821379698
8,"2 BHK Flat  for Sale in Carmelaram, Bangalore",11500000.0,10952.0,2.0,811.0,6.0,Resale,Semi,2.0,house,12.902551,77.706854,Carmelaram,-0.2026840476978046,-0.18967309884627406,1.015215233822327,0.436,-0.09407744459805538,-0.02656939564726109,-0.6389800752984739
9,"2 BHK Flat  for Sale in Tumkur Road, Bangalore",13500000.0,12442.0,2.0,762.0,22.0,Resale,Semi,2.0,apartment,13.158156,77.325762,Bengaluru,-0.18782379395052973,-0.18501403525548316,1.015215233822327,0.4343,-0.08492532518774834,-0.01702364104657032,-0.6644727776424093
10,"2 BHK Flat  for Sale in Bannerghatta Main Road, Bangalore",17000000.0,12593.0,2.0,1000.0,10.0,Resale,Semi,3.0,apartment,12.8608413357241,77.591099347206,Gottigere,-0.19297416685299812,-0.19741171406424018,1.015215233822327,0.4355,-0.06890911621971102,-0.016056252493077496,-0.5406510805432945
11,"6 BHK Flat  for Sale in Lavelle Road, Bangalore",140000000.0,35000.0,6.0,3800.0,1.0,Resale,Semi,7.0,apartment,12.97083502,77.59765882,D' Souza Layout,-0.21825333939723573,-0.20997827151061643,-0.9376562440994389,0.6197,0.493946227514172,0.12749523967986084,0.9160747676815852
12,"2 BHK Flat  for Sale in Chandapura, Bangalore",5780000.0,6192.0,2.0,692.0,3.0,New Property,Unfurnished,2.0,apartment,12.798481,77.7138094,Terracon Doctors Enclave,-0.19526869244817044,-0.1867326237441971,-0.9690298839645857,0.6187,-0.12025250611153351,-0.057064557995776574,-0.7008909238480313
13,"2 BHK Flat  for Sale in Hebbal, Bangalore",30000000.0,15881.0,2.0,1200.0,8.0,New Property,Unfurnished,2.0,apartment,13.12173909,77.59683857,BSF Campus,-0.20338323790062537,-0.22688600334755907,1.015215233822327,0.4379,-0.00942034005271525,0.005008473095560933,-0.43659923424151736
14,"2 BHK Flat  for Sale in Gunjur, Bangalore",14000000.0,11725.0,2.0,1194.0,1.0,New Property,Unfurnished,2.0,apartment,12.92660312,77.72741011,Gunjur Palya,-0.20118718979880806,-0.2011965823544136,1.015215233822327,0.4365,-0.08263729533517157,-0.02161713503898326,-0.4397207896305707
15,"2 BHK Flat  for Sale in Thanisandra Main Road, Bangalore",10800000.0,8617.0,2.0,1259.0,1.0,New Property,Unfurnished,2.0,apartment,13.0582034,77.6210251,Manyata Residency,-0.20927219200325647,-0.21733939330331592,1.015215233822327,0.4381,-0.09728068639166283,-0.041528682219484546,-0.4059039395824931
16,"2 BHK Flat  for Sale in Krishnarajapura, Bangalore",9670000.0,7299.0,2.0,1325.0,1.0,New Property,Unfurnished,2.0,apartment,13.163665,77.619335,Bengaluru,-0.19816393075280847,-0.22919070004918699,1.015215233822327,0.4375,-0.10245163385848631,-0.049972510785733164,-0.37156683030290666
17,"2 BHK Flat  for Sale in Attibele, Bangalore",8630000.0,8024.0,2.0,1075.0,1.0,New Property,Unfurnished,2.0,apartment,12.7808916,77.7739656,Attibele,-0.1882373994226209,-0.1796397209641871,1.015215233822327,0.4341,-0.10721073595184598,-0.04532776441962524,-0.5016316381801281
18,"2 BHK Flat  for Sale in RR Nagar, Bangalore",14100000.0,9870.0,2.0,1430.0,1.0,New Property,Unfurnished,2.0,apartment,12.915409,77.515634,BEML Layout 3rd Stage,-0.21171443383846136,-0.19735210983919807,-0.9679290544956332,0.6208,-0.08217968936465622,-0.033501279189507675,-0.3169396109944737
19,"2 BHK Flat  for Sale in Hosa Road, off Hosur Road, Bangalore",12800000.0,12308.0,2.0,1040.0,1.0,New Property,Unfurnished,2.0,apartment,12.877316,77.6381045,AECS C Block,-0.20641634469596046,-0.19797795420214012,-1.091221955018315,0.6299,-0.0881285669813558,-0.0178821183059613,-0.5198407112829391
20,"2 BHK Flat  for Sale in Chambenahalli, Bangalore",7950000.0,6850.0,2.0,1160.0,1.0,New Property,Unfurnished,2.0,apartment,12.91235,77.680996,Kaikondrahalli,-0.20602243472254034,-0.19305067159865977,1.015215233822327,0.4365,-0.11032245655135037,-0.05284905025936414,-0.4574096035018728
21,"2 BHK Flat  for Sale in Electronic City, Bangalore",7930000.0,6500.0,2.0,1220.0,5.0,New Property,Unfurnished,2.0,apartment,12.8339509,77.675366,Veer Sandra,-0.20030089235861276,-0.19180891691028268,-1.1137889591318417,0.6307,-0.11041397774545345,-0.05509134160851969,-0.42619404961133966
22,"2 BHK Flat  for Sale in CV Raman Nagar Kaggadasapura, Bangalore",13600000.000000002,11396.0,2.0,1199.0,1.0,New Property,Unfurnished,2.0,apartment,12.98074721,77.67940772,Kondappa Layout,-0.20770639985891143,-0.20382910229377302,-0.85949735180381,0.6119,-0.08446771921723296,-0.023724888907189476,-0.43711949347302625
23,"2 BHK Flat  for Sale in KHB Colony Yelahanka New Town, Bangalore",9710000.0,9827.0,2.0,653.0,1.0,New Property,Semi,2.0,apartment,13.095687621584345,77.542722,Bengaluru,-0.2078836593469505,-0.21565060692712304,1.015215233822327,0.4378,-0.10226859147028018,-0.03377676069811822,-0.7211810338768778
24,"2 BHK Flat  for Sale in Rachenahalli, Thanisandra, Bangalore",12500000.0,11161.0,2.0,900.0,4.0,New Property,Unfurnished,2.0,apartment,13.067769926777714,77.62286999694318,M.C.E.C.H.S. Layout 1st Phase,-0.20747990162419486,-0.2194454092548035,1.015215233822327,0.438,-0.08950138489290185,-0.025230427384479632,-0.5926770036941831
25,"2 BHK Flat  for Sale in M S Ramaiah Nagar, Bangalore",14800000.0,13429.0,2.0,1109.0,8.0,New Property,Unfurnished,2.0,apartment,13.030379821511014,77.56380340010497,AG's Layout,-0.21596866155139893,-0.21437905012622488,-0.835829518221331,0.6112,-0.07897644757104876,-0.010700379441951666,-0.48394282430882596
26,"2 BHK Flat  for Sale in Anjanapura, Bangalore",8420000.0,6838.0,2.0,774.0,1.0,New Property,Unfurnished,2.0,apartment,12.84819789,77.52157499,Bengaluru,-0.2007538888280459,-0.18630546013139537,-1.0455375320567857,0.6253,-0.10817170848992821,-0.05292592881990662,-0.6582296668643026
27,"2 BHK Flat  for Sale in Banaswadi, Bangalore",12800000.0,10500.0,2.0,1225.0,7.0,New Property,Unfurnished,2.0,apartment,13.009689331054688,77.6459732055664,Erappa Reddy Layout,-0.2107198111555755,-0.21068358817361463,-0.9514166124613453,0.62,-0.0881285669813558,-0.029465154761027686,-0.4235927534537952
28,"2 BHK Flat  for Sale in Carmelaram, Bangalore",12700000.0,9969.0,2.0,1279.0,8.0,New Property,Unfurnished,2.0,apartment,12.90535744,77.70477882,Carmelaram,-0.2026840476978046,-0.19403414131185445,1.015215233822327,0.4363,-0.08858617295187116,-0.03286703106503225,-0.3954987549523154
29,"2 BHK Flat  for Sale in Achappa Layout Shriniketh Layout, Bangalore",5600000.0,6364.0,2.0,650.0,4.0,New Property,Unfurnished,2.0,apartment,13.0744405,77.523687,Lakshmaiah Layout,-0.20774579085625344,-0.21028622667333396,-0.8914214064034331,0.6148,-0.12107619685846115,-0.05596263196133442,-0.7227418115714045
30,"2 BHK Flat  for Sale in Devanahalli, Bangalore",13300000.0,10988.0,2.0,1217.0,1.0,New Property,Unfurnished,2.0,apartment,13.24032816,77.71506051,Devanahalli,-0.18646480454223024,-0.23140599041325172,1.015215233822327,0.4365,-0.08584053712877904,-0.026338759965633663,-0.42775482730586634
31,2 BHK Apartment for Sale in RR Nagar Bangalore,11100000.000000002,9612.0,2.0,1155.0,7.0,New Property,Unfurnished,2.0,apartment,12.915409,77.515634,BEML Layout 3rd Stage,-0.21171443383846136,-0.19735210983919807,-0.9679290544956332,0.6208,-0.09590786848011676,-0.03515416824117091,-0.4600108996594172
32,2 BHK Apartment for Sale in Sarjapur Road Bangalore,11200000.000000002,9211.0,2.0,1216.0,1.0,New Property,Unfurnished,2.0,apartment,12.86025078038358,77.7650823463086,Sree Narayana Nagar,-0.19309233984502414,-0.19326922042381414,1.015215233822327,0.4353,-0.09545026250960141,-0.037723193472631984,-0.4282750865373752
33,2 BHK Apartment for Sale in Yelahanka Bangalore,14200000.0,9605.0,2.0,1486.0,1.0,New Property,Unfurnished,2.0,apartment,12.865111,77.530619,Bda Approved Layout,-0.19976911389449556,-0.1853021223431867,-1.1121377149284128,0.6302,-0.08172208339414087,-0.035199014068154025,-0.2878050940299761
34,2 BHK Apartment for Sale in Krishnarajapura Bangalore,8590000.0,7150.0,2.0,1201.0,1.0,New Property,Unfurnished,2.0,apartment,13.00643164,77.72601115,Kodigehalli,-0.2027234386951466,-0.20962064616036383,-0.814363343576757,0.6079,-0.10739377834005212,-0.05092708624580224,-0.4360789750100085
35,2 BHK Apartment for Sale in Bannerghatta Main Road Bangalore,25200000.0,15971.0,2.0,1265.0,1.0,New Property,Unfurnished,2.0,apartment,12.87052719,77.59332459,Kalena Agrahara,-0.2081790918270156,-0.19864353471511026,-0.8149137583112332,0.6079,-0.03138542663745215,0.005585062299629503,-0.4027823841934398
36,2 BHK Apartment for Sale in Sarjapur Road Bangalore,11200000.000000002,9554.0,2.0,1175.0,1.0,New Property,Unfurnished,2.0,apartment,21.035438999287667,79.03085345311747,"MIHAN, Nagpur",0.8442892706555919,0.8083797814086916,1.015215233822327,0.2883,-0.09545026250960141,-0.03552574795045955,-0.4496057150292395
37,2 BHK Apartment for Sale in Sarjapur Road Bangalore,9260000.0,8000.0,2.0,1158.0,1.0,New Property,Unfurnished,3.0,apartment,12.87075018,77.77260098,Bengaluru,-0.194126353525252,-0.1943122943620509,1.015215233822327,0.4354,-0.10432781833759926,-0.04548152154071019,-0.45845012196489054
38,2 BHK Apartment for Sale in Whitefield Bangalore,13500000.0,11351.0,2.0,1197.0,1.0,New Property,Unfurnished,2.0,apartment,12.962689313479418,77.73467167683721,Palm Meadows,-0.20287115493517918,-0.20583577787019042,-1.0433358731188804,0.6263,-0.08492532518774834,-0.02401318350922376,-0.43816001193604404
39,2 BHK Apartment for Sale in Yelahanka Bangalore,7959999.999999999,6300.0,2.0,1264.0,1.0,New Property,Unfurnished,2.0,apartment,13.11191016,77.57010075,Ramanashree California Gardens Layout,-0.20233937647106198,-0.2183427310915246,1.015215233822327,0.4374,-0.11027669595429884,-0.05637265095089429,-0.4033026434249487
40,2 BHK Apartment for Sale in Sarjapura Bangalore,7280000.0,5824.0,2.0,1250.0,1.0,New Property,Furnished,2.0,apartment,12.835015042801714,77.78238598801194,Billapura,-0.18199392634391165,-0.18993138382145652,1.015215233822327,0.434,-0.11338841655380323,-0.05942216718574584,-0.4105862726660731
41,2 BHK Apartment for Sale in Sarjapur Road Bangalore,12400000.0,10081.0,2.0,1230.0,1.0,New Property,Unfurnished,2.0,house,12.88109827,77.71349549,Kodathi,-0.19945398591575944,-0.18641473454397256,1.015215233822327,0.4356,-0.0899589908634172,-0.032149497833302475,-0.4209914572962508
42,2 BHK Apartment for Sale in Electronic City Bangalore,8690000.0,6687.0,2.0,1300.0,1.0,New Property,Unfurnished,2.0,apartment,12.8339509,77.675366,Veer Sandra,-0.20030089235861276,-0.19180891691028268,-1.1137889591318417,0.6307,-0.10693617236953677,-0.05389331737339944,-0.3845733110906288
43,2 BHK Apartment for Sale in Sarjapur Road Bangalore,15700000.0,12362.0,2.0,1270.0,1.0,New Property,Unfurnished,2.0,apartment,12.891293073785318,77.70453405283318,Chikkakannalli,-0.2007046500813684,-0.1876862913448707,1.015215233822327,0.4357,-0.07485799383641059,-0.01753616478352016,-0.40018108803589536
44,2 BHK Apartment for Sale in Electronic City Bangalore,6900000.0,5126.0,2.0,1346.0,1.0,New Property,Unfurnished,2.0,apartment,12.8339509,77.675366,Veer Sandra,-0.20030089235861276,-0.19180891691028268,-1.1137889591318417,0.6307,-0.11512731924176156,-0.0638939367906332,-0.36064138644122007
45,2 BHK Apartment for Sale in Whitefield-Hoskote Road Bangalore,10700000.0,8300.0,2.0,721.0,5.0,New Property,Unfurnished,2.0,apartment,13.0282951,77.7609415,Ardendale,-0.19612544664035925,-0.21451812665132314,-0.9519670271958215,0.6188,-0.0977382923621782,-0.04355955752714829,-0.6858034061342736
46,2 BHK Apartment for Sale in Gunjur Bangalore,13200000.0,10418.0,2.0,1270.0,1.0,New Property,Unfurnished,2.0,apartment,12.91821688,77.7253209,Gunjur Palya,-0.19948352916376594,-0.20104757179180832,1.015215233822327,0.4363,-0.08629814309929439,-0.029990491591401273,-0.40018108803589536
47,2 BHK Apartment for Sale in Soukya Road Bangalore,9100000.0,9228.0,2.0,986.0,1.0,New Property,Unfurnished,2.0,apartment,12.99388554,77.80352945,Koralur,-0.19363396605847685,-0.19323941831129313,1.015215233822327,0.4353,-0.10505998789042383,-0.03761428217853014,-0.5479347097844189
48,2 BHK Apartment for Sale in Mysore Road Bangalore,11000000.0,10793.0,2.0,1020.0,1.0,New Property,Unfurnished,2.0,apartment,12.87546337065702,77.44965569885767,Bengaluru,-0.20315673966590878,-0.1827788768164044,-0.9833406670609683,0.6205,-0.09636547445063214,-0.027588036574448898,-0.5302458959131168
49,2 BHK Apartment for Sale in Gunjur Bangalore,11700000.0,8499.0,2.0,1380.0,1.0,New Property,Unfurnished,2.0,apartment,12.91821688,77.7253209,Gunjur Palya,-0.19948352916376594,-0.20104757179180832,1.015215233822327,0.4363,-0.09316223265702467,-0.042284654731485564,-0.34295257256991796
50,2 BHK Apartment for Sale in Yelahanka New Town Bangalore,13600000.000000002,10320.0,2.0,859.0,3.0,New Property,Unfurnished,2.0,apartment,13.09982885,77.58107977,Yelahanka Satellite Town,-0.20450588132487277,-0.2205282193430683,1.015215233822327,0.4377,-0.08446771921723296,-0.030618333169164826,-0.6140076321860474
51,"2 BHK Apartment for Sale in Doddakallasandra, Konanakunte Bangalore",11399999.999999998,11172.0,2.0,735.0,4.0,New Property,Unfurnished,2.0,apartment,12.88687,77.55137,Doddakallasandra,-0.21005016420076125,-0.19900116006536286,-0.9629753218853468,0.6203,-0.09453505056857074,-0.02515995537064903,-0.6785197768931491
52,"2 BHK Apartment for Sale in Chikkajala, Bangalore-Hyderabad Hwy Bangalore",17700000.0,12275.0,2.0,940.0,5.0,New Property,Unfurnished,2.0,apartment,13.16843602,77.63515109,Huttanahalli,-0.19859723172357063,-0.2315152648258289,1.015215233822327,0.4377,-0.06570587442610355,-0.01809353434745311,-0.5718666344338277
53,2 BHK Apartment for Sale in Sarjapur Road Bangalore,12100000.0,9473.0,2.0,1283.0,1.0,New Property,Unfurnished,2.0,apartment,12.91235,77.680996,Kaikondrahalli,-0.20602243472254034,-0.19305067159865977,1.015215233822327,0.4365,-0.09133180877496326,-0.03604467823412126,-0.39341771802627984
54,2 BHK Apartment for Sale in Sarjapur Road Bangalore,11299999.999999998,9244.0,2.0,1225.0,1.0,New Property,Unfurnished,2.0,apartment,12.91235,77.680996,Kaikondrahalli,-0.20602243472254034,-0.19305067159865977,1.015215233822327,0.4365,-0.09499265653908609,-0.037511777431140175,-0.4235927534537952
55,2 BHK Apartment for Sale in Panathur Bangalore,8059999.999999999,6250.0,2.0,1000.0,5.0,New Property,Unfurnished,2.0,apartment,12.93555355,77.70595213,Kadubeesanahalli,-0.2020242484923259,-0.19680573777631213,1.015215233822327,0.4363,-0.10981908998378348,-0.05669297828648794,-0.5406510805432945
56,2 BHK Apartment for Sale in Sarjapur Road Bangalore,16299999.999999998,12000.0,2.0,1360.0,1.0,New Property,Unfurnished,2.0,apartment,12.900521,77.710237,Carmelaram,-0.20262496120179158,-0.189623428658739,1.015215233822327,0.436,-0.07211235801331849,-0.019855334693218183,-0.35335775720009566
57,2 BHK Apartment for Sale in Gunjur Bangalore,13200000.0,10000.0,2.0,839.0,1.0,New Property,Furnished,2.0,apartment,12.94162601,77.74251723,Patel Layout,-0.20028119685994175,-0.2046933635568835,1.015215233822327,0.4365,-0.08629814309929439,-0.03266842811696419,-0.6244128168162251
58,2 BHK Apartment for Sale in Varthur Road Bangalore,8220000.0,4566.0,2.0,1800.0,2.0,New Property,Unfurnished,2.0,apartment,12.95577568,77.71436343,Silver Springs Layout,-0.20584517523450127,-0.19849452415250501,-0.8677535728209541,0.6121,-0.10908692043095893,-0.06748160294928207,-0.124443695336186
59,2 BHK Apartment for Sale in Hennur Main Road Bangalore,19200000.0,13417.0,2.0,1431.0,24.0,New Property,Unfurnished,2.0,apartment,13.0231661,77.6309661,HBR Layout 2nd Block,-0.21265981777466972,-0.21209422149961105,1.015215233822327,0.4381,-0.05884178486837327,-0.010777258002494142,-0.3164193517629648
60,2 BHK Apartment for Sale in Sarjapur Road Bangalore,10400000.0,9463.0,2.0,1099.0,5.0,New Property,Semi,2.0,apartment,21.035438999287667,79.03085345311747,"MIHAN, Nagpur",0.8442892706555919,0.8083797814086916,1.015215233822327,0.2883,-0.09911111027372424,-0.03610874370123999,-0.4891454166239148
61,2 BHK Apartment for Sale in Phase 2nd Judicial Layout Bangalore,9000000.0,10000.0,2.0,900.0,6.0,Resale,Semi,2.0,apartment,12.86366796,77.54064377,Judicial Layout 2nd Phase,-0.19950322466243697,-0.1850339033304972,-1.0879194666114576,0.6283,-0.10551759386093917,-0.03266842811696419,-0.5926770036941831
62,2 BHK Apartment for Sale in Phase 2 Electronic City Bangalore,8000000.0,7112.0,2.0,1125.0,4.0,New Property,Unfurnished,2.0,apartment,12.84681621,77.68222508,Phase II,-0.20082282307339444,-0.19233542089815456,-1.0092101595813525,0.6227,-0.1100936535660927,-0.05117053502085341,-0.47561867660468377
63,2 BHK Apartment for Sale in Sarjapur Road Bangalore,12200000.0,10000.0,2.0,1229.0,1.0,New Property,Unfurnished,2.0,apartment,12.91235,77.680996,Kaikondrahalli,-0.20602243472254034,-0.19305067159865977,1.015215233822327,0.4365,-0.09087420280444791,-0.03266842811696419,-0.4215117165277597
64,2 BHK Apartment for Sale in Sadahalli Bangalore,9310000.0,7776.0,2.0,718.0,9.0,New Property,Unfurnished,2.0,apartment,13.24032816,77.71506051,Devanahalli,-0.18646480454223024,-0.23140599041325172,1.015215233822327,0.4365,-0.10409901535234159,-0.04691658800416974,-0.6873641838288003
65,2 BHK Apartment for Sale in Ambalipura Haralur Bangalore,18900000.0,15789.0,2.0,950.0,14.0,Resale,Semi,2.0,apartment,12.903428514109851,77.66190007338585,Eastwood Township,-0.20553004725576515,-0.19255396972330893,-0.9596728334784892,0.6193,-0.06021460277991932,0.004419070798068616,-0.5666640421187388
66,"2 BHK Apartment for Sale in Hadosiddapura, Chikkakannalli Bangalore",10500000.0,10638.0,2.0,690.0,10.0,Resale,Unfurnished,2.0,apartment,12.91235,77.680996,Kaikondrahalli,-0.20602243472254034,-0.19305067159865977,1.015215233822327,0.4365,-0.09865350430320889,-0.028581051314789212,-0.701931442311049
67,2 BHK Apartment for Sale in Kada Agrahara Bangalore,8710000.0,7900.0,2.0,1102.0,1.0,New Property,Unfurnished,2.0,apartment,12.85711651,77.76588799,Sree Narayana Nagar,-0.19335822907708275,-0.19353743943650362,1.015215233822327,0.4353,-0.1068446511754337,-0.046122176211897487,-0.48758463892938814
68,2 BHK Apartment for Sale in Phase 8th JP Nagar Bangalore,11299999.999999998,8360.0,2.0,1360.0,2.0,New Property,Unfurnished,2.0,apartment,12.90369008,77.58574868,JP Nagar 6th Phase,-0.21274844751868924,-0.2024582051178047,-1.0681045361703123,0.629,-0.09499265653908609,-0.04317516472443591,-0.35335775720009566
69,6 BHK Apartment for Sale in Whitefield Bangalore,95000000.0,11875.0,6.0,8050.0,30.0,New Property,Unfurnished,5.0,apartment,12.9680475,77.739097,Palm Meadows,-0.20176820700960277,-0.20705766448355348,-1.0565458267463108,0.6272,0.28802354078226355,-0.02065615303220231,3.127176501594349
70,2 BHK Apartment for Sale in Jakkur Bangalore,7009999.999999999,5700.0,2.0,860.0,0.0,New Property,Unfurnished,2.0,apartment,13.06410398,77.62058066,Royal Enclave,-0.20836619906439016,-0.21910765197956492,1.015215233822327,0.4381,-0.11462395267419467,-0.06021657897801809,-0.6134873729545385
71,2 BHK Apartment for Sale in Sarjapura Bangalore,14800000.0,13040.0,2.0,758.0,12.0,Resale,Unfurnished,2.0,apartment,12.91235,77.680996,Kaikondrahalli,-0.20602243472254034,-0.19305067159865977,1.015215233822327,0.4365,-0.07897644757104876,-0.013192526112870263,-0.6665538145684448
72,6 BHK Penthouse for Sale in Mission Road Bangalore,300000000.0,31844.0,6.0,9421.0,22.0,New Property,Unfurnished,8.0,penthouse,12.96232367,77.59298389,Bengaluru,-0.21838136013859727,-0.208537836072099,-1.022970527943259,0.6264,1.2261157803387353,0.10727617825718966,3.8404519079930313
73,2 BHK Apartment for Sale in Aduru Anekal Bangalore,16000000.0,11955.0,2.0,1240.0,14.0,New Property,Unfurnished,2.0,apartment,12.73816125,77.65279455,Aduru,-0.17699126968147583,-0.1623346276269638,1.015215233822327,0.4321,-0.07348517592486453,-0.020143629295252468,-0.41578886498116197
74,2 BHK Apartment for Sale in Bommasandra Industrial Area Bangalore,5390000.0,5500.0,2.0,980.0,2.0,New Property,Unfurnished,2.0,apartment,12.80542192,77.69054698,Electronic City,-0.1959678826509912,-0.18743794040719527,-1.0081093301124,0.6219,-0.12203716939654338,-0.06149788832039269,-0.5510562651734722
75,2 BHK Builder Floor for Sale in Whitefield Bangalore,7550000.0,6415.0,2.0,1177.0,0.0,Resale,Furnished,2.0,apartment,12.9680475,77.739097,Palm Meadows,-0.20176820700960277,-0.20705766448355348,-1.0565458267463108,0.6272,-0.11215288043341178,-0.0556358980790289,-0.44856519656622174
76,2 BHK Apartment for Sale in Kasavanahalli Bangalore,7359999.999999999,6700.0,2.0,1098.0,1.0,New Property,Unfurnished,2.0,apartment,12.9062004,77.6754251,IAS Layout,-0.2054611130104166,-0.19247449742325282,1.015215233822327,0.4365,-0.11302233177739095,-0.05381003226614509,-0.4896656758554237
77,2 BHK Apartment for Sale in Naagarabhaavi Bangalore,15900000.0,10999.0,2.0,1450.0,1.0,New Property,Unfurnished,2.0,apartment,12.97089643,77.51255603,10 Block,-0.21388093869227215,-0.2052794717697975,-0.9156396547203887,0.6172,-0.07394278189537988,-0.026268287951803058,-0.30653442636429595
78,2 BHK Apartment for Sale in Rayasandra Bangalore,7480000.0,6997.0,2.0,1069.0,2.0,New Property,Unfurnished,2.0,apartment,12.86493502,77.67522698,Rayasandra,-0.20304841442321825,-0.19458051337474036,-0.9134379957824834,0.6154,-0.11247320461277252,-0.05190728789271881,-0.5047531935691814
79,2 BHK Apartment for Sale in Silver County Road Bangalore,22000000.0,17460.0,2.0,1260.0,11.0,Resale,Semi,2.0,apartment,12.9007264,77.6603151,Lakedew Residency,-0.20517552827968702,-0.19218641033554934,-0.9745340313093481,0.6204,-0.04602881769394341,0.0151244103536084,-0.4053836803509842
80,2 BHK Apartment for Sale in Sarjapur Road Bangalore,10300000.0,9999.0,2.0,780.0,1.0,New Property,Unfurnished,2.0,apartment,12.91235,77.680996,Kaikondrahalli,-0.20602243472254034,-0.19305067159865977,1.015215233822327,0.4365,-0.0995687162442396,-0.03267483466367606,-0.6551081114752493
81,2 BHK Apartment for Sale in Whitefield Bangalore,19500000.0,15984.0,2.0,1220.0,6.0,Resale,Semi,2.0,apartment,12.9680475,77.739097,Palm Meadows,-0.20176820700960277,-0.20705766448355348,-1.0565458267463108,0.6272,-0.05746896695682721,0.005668347406883852,-0.42619404961133966
82,2 BHK Apartment for Sale in Sarjapur Road Bangalore,8500000.0,8586.0,2.0,655.0,5.0,New Property,Unfurnished,2.0,apartment,12.91235,77.680996,Kaikondrahalli,-0.20602243472254034,-0.19305067159865977,1.015215233822327,0.4365,-0.10780562371351593,-0.041727285167552614,-0.72014051541386
83,2 BHK Apartment for Sale in Whitefield Bangalore,14300000.0,11034.0,2.0,950.0,9.0,Resale,Semi,2.0,apartment,12.982587692174135,77.75532781349413,Ambedkar Nagar,-0.1990502281930038,-0.20936236118518142,-1.1198435212110804,0.6319,-0.08126447742362551,-0.026044058816887504,-0.5666640421187388
84,2 BHK Apartment for Sale in Dasanapura Bangalore,3500000.0,4944.0,2.0,502.0,10.0,Resale,Unfurnished,2.0,house,13.07111545,77.43082202,Dasanapura,-0.19860707947290615,-0.19590174036317362,1.015215233822327,0.4359,-0.13068592223928355,-0.06505992829219408,-0.7997401778347195
85,2 BHK Apartment for Sale in Budigere Cross Bangalore,8000000.0,9019.0,2.0,630.0,10.0,Resale,Unfurnished,2.0,apartment,13.06388092,77.74555733,Budigere Cross,-0.19672615934982496,-0.2201805280303227,1.015215233822327,0.437,-0.1100936535660927,-0.0389532504413116,-0.7331469962015822
86,2 BHK Apartment for Sale in Whitefield Bangalore,24800000.0,18235.0,2.0,1088.0,13.0,Resale,Furnished,2.0,apartment,12.9680475,77.739097,Palm Meadows,-0.20176820700960277,-0.20705766448355348,-1.0565458267463108,0.6272,-0.033215850519513555,0.020089484055309977,-0.49486826817051255
87,2 BHK Apartment for Sale in Budigere Cross Bangalore,9210000.0,9682.0,2.0,730.0,14.0,New Property,Semi,2.0,apartment,13.04376074207236,77.74627894720186,Virgonagar,-0.19865631821958366,-0.2183427310915246,1.015215233822327,0.4371,-0.10455662132285694,-0.0347057099713398,-0.6811210730506936
88,2 BHK Apartment for Sale in Sarjapur Road Bangalore,12400000.0,9500.0,2.0,970.0,9.0,New Property,Unfurnished,2.0,apartment,12.90585231781006,77.70533752441406,Carmelaram,-0.20260526570312057,-0.19404407534936147,1.015215233822327,0.4362,-0.0899589908634172,-0.03587170147290069,-0.5562588574885611
89,"2 BHK Apartment for Sale in Shanthi Pura, Electronic City Bangalore",16299999.999999998,13527.0,2.0,900.0,7.0,Resale,Semi,2.0,apartment,12.84681621,77.68222508,Phase II,-0.20082282307339444,-0.19233542089815456,-1.0092101595813525,0.6227,-0.07211235801331849,-0.010072537864188111,-0.5926770036941831
90,2 BHK Apartment for Sale in Krishnarajapura Bangalore,14400000.0,10951.0,2.0,1315.0,10.0,New Property,Unfurnished,2.0,apartment,13.018226,77.710319,RMS Colony,-0.2043089263381627,-0.21316709755036883,-0.8881189179965757,0.6144,-0.08080687145311016,-0.026575802193972962,-0.3767694226179955
91,2 BHK Apartment for Sale in Sarjapur Road Bangalore,11399999.999999998,9999.0,2.0,859.0,1.0,New Property,Unfurnished,2.0,apartment,12.91235,77.680996,Kaikondrahalli,-0.20602243472254034,-0.19305067159865977,1.015215233822327,0.4365,-0.09453505056857074,-0.03267483466367606,-0.6140076321860474
92,2 BHK Apartment for Sale in Kodathi Bangalore,8259999.999999999,8224.0,2.0,643.0,3.0,New Property,Unfurnished,2.0,apartment,12.91804119,77.71674778,Gunjur Palya,-0.20032058785728374,-0.1997362788408821,1.015215233822327,0.4363,-0.10890387804275278,-0.044046455077250635,-0.7263836261919666
93,2 BHK Apartment for Sale in Sarjapura Bangalore,18500000.0,13765.0,2.0,1344.0,9.0,Resale,Semi,2.0,apartment,12.8539625,77.7889754,Infosys Head Quater,-0.19116218097526547,-0.19132214907243886,1.015215233822327,0.435,-0.06204502666198073,-0.008547779746762338,-0.36168190490423785
94,2 BHK Apartment for Sale in RR Nagar Bangalore,9680000.0,9504.0,2.0,784.0,5.0,New Property,Unfurnished,2.0,apartment,12.915409088134766,77.51563262939453,BEML Layout 3rd Stage,-0.21171443383846136,-0.19735210983919807,-0.9679290544956332,0.6208,-0.10240587326143478,-0.03584607528605319,-0.6530270745492138
95,2 BHK Apartment for Sale in Bangalore City Municipal Corporation Layout Bangalore,18500000.0,13074.0,2.0,839.0,6.0,Resale,Unfurnished,2.0,apartment,12.84819789,77.52157499,Bengaluru,-0.2007538888280459,-0.18630546013139537,-1.0455375320567857,0.6253,-0.06204502666198073,-0.012974703524666582,-0.6244128168162251
96,2 BHK Apartment for Sale in Haralur Bangalore,13899999.999999998,11900.0,2.0,738.0,9.0,New Property,Semi,2.0,apartment,12.900521,77.710237,Carmelaram,-0.20262496120179158,-0.189623428658739,1.015215233822327,0.436,-0.08309490130568695,-0.020495989364405484,-0.6769589991986226
97,2 BHK Apartment for Sale in Thanisandra Bangalore,13200000.0,12500.0,2.0,750.0,14.0,New Property,Unfurnished,2.0,apartment,13.0582034,77.6210251,Manyata Residency,-0.20927219200325647,-0.21733939330331592,1.015215233822327,0.4381,-0.08629814309929439,-0.016652061337281684,-0.6707158884205159
98,2 BHK Apartment for Sale in Block A Sahakar Nagar Bangalore,10600000.0,10045.0,2.0,704.0,5.0,New Property,Unfurnished,2.0,apartment,13.066402650916418,77.5764200214518,Prakruthi Layout,-0.2085336108030937,-0.22043881300550516,1.015215233822327,0.4381,-0.09819589833269354,-0.0323801335149299,-0.6946478130699246
99,2 BHK Apartment for Sale in Bellahalli Bangalore,7500000.0,7136.0,2.0,731.0,4.0,New Property,Unfurnished,2.0,apartment,13.10557,77.64363,Bengaluru,-0.20242800621508153,-0.22457137260842416,1.015215233822327,0.4377,-0.11238168341866946,-0.05101677789976846,-0.6806008138191847
100,2 BHK Apartment for Sale in Jigani Bangalore,4800000.0,5090.0,2.0,750.0,7.0,Resale,Semi,2.0,apartment,12.7822547,77.6452303,1st Phase,-0.1926688866235975,-0.18411003784234464,1.015215233822327,0.4348,-0.12473704462258396,-0.06412457247226062,-0.6707158884205159
101,2 BHK Apartment for Sale in Phase 1 Electronics City Bangalore,7550000.0,6800.0,2.0,800.0,2.0,New Property,Unfurnished,2.0,apartment,12.84251915,77.66035526,Electronic City Phase I,-0.20093114831608497,-0.19244469531073177,-0.9128875810480073,0.6151,-0.11215288043341178,-0.05316937759495779,-0.6447029268450716
102,2 BHK Apartment for Sale in Varthur Road Bangalore,12500000.0,9350.0,2.0,942.0,21.0,New Property,Unfurnished,2.0,apartment,12.89892838,77.74859093,Bengaluru,-0.19585955740830063,-0.19936871945312248,1.015215233822327,0.4358,-0.08950138489290185,-0.03683268347968164,-0.5708261159708099
103,2 BHK Apartment for Sale in Begur Road Bangalore,13000000.0,10164.0,2.0,895.0,5.0,Resale,Semi,2.0,apartment,12.888731,77.625587,Maruthi Layout,-0.20868132704312628,-0.20027271686626102,-1.010310989050305,0.624,-0.0872133550403251,-0.031617754456217013,-0.5952782998517275
104,2 BHK Apartment for Sale in Thanisandra Main Road Bangalore,10500000.0,10660.0,2.0,985.0,17.0,Resale,Semi,2.0,apartment,13.080724,77.64051,Devin Paradise Enclave,-0.20423999209281418,-0.2243031535957347,1.015215233822327,0.4379,-0.09865350430320889,-0.028440107287128005,-0.5484549690159278
105,2 BHK Apartment for Sale in Electronic City Bangalore,12800000.0,10407.0,2.0,1230.0,15.0,New Property,Unfurnished,2.0,apartment,12.8339509,77.675366,Veer Sandra,-0.20030089235861276,-0.19180891691028268,-1.1137889591318417,0.6307,-0.0881285669813558,-0.030060963605231875,-0.4209914572962508
106,"2 BHK Apartment for Sale in Devasthanagalu, Varthur Bangalore",8550000.0,8906.0,2.0,672.0,3.0,New Property,Unfurnished,2.0,apartment,12.94162601,77.74251723,Patel Layout,-0.20028119685994175,-0.2046933635568835,1.015215233822327,0.4365,-0.10757682072825826,-0.03967719021975325,-0.711296108478209
107,2 BHK Apartment for Sale in Old Madras Road Bangalore,13000000.0,10744.0,2.0,1210.0,5.0,Resale,Unfurnished,2.0,apartment,12.98691162,77.64796731,Binna Mangala,-0.21135991486238326,-0.206163601107922,-1.063150803560026,0.6286,-0.0872133550403251,-0.027901957363330673,-0.4313966419264285
108,2 BHK Apartment for Sale in Thanisandra Main Road Bangalore,17500000.0,13060.0,2.0,1090.0,20.0,Resale,Furnished,2.0,apartment,13.080724,77.64051,Devin Paradise Enclave,-0.20423999209281418,-0.2243031535957347,1.015215233822327,0.4379,-0.06662108636713425,-0.013064395178632804,-0.49382774970749477
109,"2 BHK Apartment for Sale in Devasthanagalu, Varthur Bangalore",16000000.0,14760.0,2.0,662.0,11.0,Resale,Unfurnished,2.0,apartment,12.94162601,77.74251723,Patel Layout,-0.20028119685994175,-0.2046933635568835,1.015215233822327,0.4365,-0.07348517592486453,-0.0021732657684487016,-0.7164987007932978
110,2 BHK Apartment for Sale in Electronic City Bangalore,9090000.0,7800.0,2.0,1165.0,5.0,New Property,Unfurnished,2.0,apartment,12.8339509,77.675366,Veer Sandra,-0.20030089235861276,-0.19180891691028268,-1.1137889591318417,0.6307,-0.10510574848747536,-0.04676283088308479,-0.45480830734432837
111,2 BHK Apartment for Sale in Murgesh Pallya Bangalore,13500000.0,11157.0,2.0,822.0,3.0,Resale,Semi,2.0,apartment,12.95623306,77.65603499,Murugeshpalya,-0.21180306358248088,-0.203799300181252,-0.8881189179965757,0.6147,-0.08492532518774834,-0.025256053571327125,-0.6332572237518761
112,2 BHK Apartment for Sale in Sarjapur Road Bangalore,14500000.0,8874.0,2.0,1062.0,6.0,New Property,Unfurnished,2.0,apartment,12.86123103,77.76847306,Sree Narayana Nagar,-0.1937816822985094,-0.19396460304930535,1.015215233822327,0.4354,-0.08034926548259481,-0.03988219971453318,-0.5083950081897436
113,"2 BHK Apartment for Sale in Nallurhalli, Whitefield, Borewell Road Bangalore",16900000.0,12850.0,2.0,838.0,9.0,New Property,Unfurnished,2.0,apartment,12.97094073,77.73326546,Nallurhalli,-0.20192577099897083,-0.20503112083212208,-1.0934236139562201,0.63,-0.06936672219022637,-0.014409769988126134,-0.624933076047734
114,2 BHK Apartment for Sale in Subramanyapura Bangalore,17500000.0,12802.0,2.0,1367.0,3.0,Resale,Semi,2.0,apartment,12.906179,77.5491255,BHCS Layout,-0.21224621230257856,-0.19471958989983862,-0.9558199303371554,0.6198,-0.06662108636713425,-0.014717284230296038,-0.3497159425795335
115,2 BHK Apartment for Sale in Budigere Cross Bangalore,14600000.0,12275.0,2.0,810.0,1.0,New Property,Unfurnished,2.0,apartment,13.06388092,77.74555733,Budigere Cross,-0.19672615934982496,-0.2201805280303227,1.015215233822327,0.437,-0.07989165951207947,-0.01809353434745311,-0.6395003345299828
116,"2 BHK Apartment for Sale in Rachenahalli, Thanisandra Bangalore",12900000.0,12245.0,2.0,650.0,4.0,New Property,Unfurnished,2.0,apartment,13.067769926777714,77.62286999694318,M.C.E.C.H.S. Layout 1st Phase,-0.20747990162419486,-0.2194454092548035,1.015215233822327,0.438,-0.08767096101084045,-0.0182857307488093,-0.7227418115714045
117,2 BHK Apartment for Sale in Thanisandra Main Road Bangalore,13500000.0,11250.0,2.0,1200.0,2.0,New Property,Unfurnished,2.0,apartment,13.09008887,77.63536252,Agrahara Badavane,-0.20245754946308803,-0.22273357566962607,1.015215233822327,0.4377,-0.08492532518774834,-0.024660244727122936,-0.43659923424151736
118,2 BHK Apartment for Sale in Thanisandra Bangalore,11500000.0,11220.0,2.0,980.0,5.0,New Property,Unfurnished,2.0,apartment,13.0582034,77.6210251,Manyata Residency,-0.20927219200325647,-0.21733939330331592,1.015215233822327,0.4381,-0.09407744459805538,-0.024852441128479126,-0.5510562651734722
119,2 BHK Apartment for Sale in Whitefield Bangalore,24000000.0,18504.0,2.0,1297.0,2.0,Resale,Semi,2.0,apartment,12.9680475,77.739097,Palm Meadows,-0.20176820700960277,-0.20705766448355348,-1.0565458267463108,0.6272,-0.03687669828363637,0.021812845120803816,-0.3861340887851555
120,2 BHK Apartment for Sale in Varthur Bangalore,16200000.000000002,14075.0,2.0,1151.0,17.0,Resale,Unfurnished,2.0,apartment,12.94162601,77.74251723,Patel Layout,-0.20028119685994175,-0.2046933635568835,1.015215233822327,0.4365,-0.07256996398383382,-0.006561750266081708,-0.4620919365854528
121,2 BHK Apartment for Sale in Thanisandra Bangalore,11000000.0,11168.0,2.0,760.0,10.0,Resale,Semi,2.0,apartment,13.080921,77.64054,Devin Paradise Enclave,-0.20423014434347866,-0.2242932195582277,1.015215233822327,0.4379,-0.09636547445063214,-0.025185581557496523,-0.6655132961054271
122,2 BHK Apartment for Sale in Ambalipura Haralur Bangalore,12300000.0,12907.0,2.0,650.0,11.0,Resale,Semi,2.0,apartment,12.90330525,77.66164676,Eastwood Township,-0.20552019950642963,-0.19253410164829493,-0.9618744924163942,0.6195,-0.09041659683393256,-0.014044596825549373,-0.7227418115714045
123,2 BHK Apartment for Sale in Devanahalli Bangalore,12600000.0,10094.0,2.0,1250.0,1.0,New Property,Unfurnished,2.0,apartment,13.194302866704644,77.65990582883578,Yerthiganahalli,-0.19443163375465264,-0.23681010681706888,1.015215233822327,0.4376,-0.0890437789223865,-0.03206621272604813,-0.4105862726660731
124,2 BHK Apartment for Sale in Yelahanka Bangalore,14500000.0,12083.0,2.0,1200.0,1.0,New Property,Unfurnished,2.0,apartment,13.12173909,77.59683857,BSF Campus,-0.20338323790062537,-0.22688600334755907,1.015215233822327,0.4379,-0.08034926548259481,-0.019323591316132725,-0.43659923424151736
125,2 BHK Apartment for Sale in Gunjur Bangalore,12700000.0,11300.0,2.0,1130.0,2.0,New Property,Furnished,2.0,apartment,12.91821688,77.7253209,Gunjur Palya,-0.19948352916376594,-0.20104757179180832,1.015215233822327,0.4363,-0.08858617295187116,-0.024339917391529284,-0.47301738044713937
126,2 BHK Apartment for Sale in Uttarahalli Hobli Bangalore,16000000.0,14625.0,2.0,736.0,10.0,Resale,Semi,2.0,apartment,12.90569188,77.54735071,Appartment,-0.21027666243547785,-0.19506728121258418,-0.8622494254761914,0.6119,-0.07348517592486453,-0.003038149574551557,-0.6779995176616402
127,2 BHK Apartment for Sale in Devanahalli Bangalore,13500000.0,9712.0,2.0,1290.0,8.0,New Property,Unfurnished,2.0,apartment,13.194302866704644,77.65990582883578,Yerthiganahalli,-0.19443163375465264,-0.23681010681706888,1.015215233822327,0.4376,-0.08492532518774834,-0.03451351356998361,-0.38977590340571766
128,2 BHK Apartment for Sale in Kogilu Bangalore,10700000.0,9000.0,2.0,1198.0,2.0,New Property,Furnished,2.0,apartment,13.0992238,77.609323,Prakruthi Nagar,-0.20522476702636455,-0.22400513247052417,1.015215233822327,0.438,-0.0977382923621782,-0.039074974828837185,-0.43763975270453515
129,2 BHK Apartment for Sale in Devanahalli Bangalore,14000000.0,10853.0,2.0,1190.0,8.0,New Property,Unfurnished,2.0,apartment,13.194302866704644,77.65990582883578,Yerthiganahalli,-0.19443163375465264,-0.23681010681706888,1.015215233822327,0.4376,-0.08263729533517157,-0.027203643771736518,-0.4418018265566062
130,2 BHK Apartment for Sale in Varthur Road Bangalore,15100000.0,11276.0,2.0,1076.0,20.0,New Property,Unfurnished,2.0,apartment,12.89892838,77.74859093,Bengaluru,-0.19585955740830063,-0.19936871945312248,1.015215233822327,0.4358,-0.0776036296595027,-0.024493674512614236,-0.5011113789486192
131,2 BHK Apartment for Sale in Hoskote Bangalore,2130000.0,2450.0,2.0,696.0,0.0,Resale,Unfurnished,2.0,apartment,13.0689366,77.7968211,Kaveri Nagar,-0.19302340559967562,-0.2041072553439695,1.015215233822327,0.4358,-0.13695512403534385,-0.08103785579160534,-0.6988098869219957
133,2 BHK Apartment for Sale in Allalasandra Yelahanka Bangalore,5860000.0,6025.0,2.0,972.0,12.0,New Property,Semi,2.0,apartment,13.109757,77.558711,Attur Layout,-0.20087206182007195,-0.21686255950297909,1.015215233822327,0.4372,-0.11988642133512123,-0.05813445129665937,-0.5552183390255433
134,2 BHK Apartment for Sale in Varthur Bangalore,18500000.0,9610.0,2.0,1500.0,0.0,Resale,Semi,2.0,apartment,12.955591201782228,77.74301147460938,Ramagondanahalli,-0.20263480895112712,-0.20644175415811847,-0.9470132945855354,0.6187,-0.06204502666198073,-0.03516698133459466,-0.2805214647888517
135,6 BHK Villa for Sale in Whitefield Main Road Bangalore,150000000.0,29412.0,6.0,4417.0,1.0,Resale,Furnished,6.0,villa,12.9701463,77.7451309,Dodsworth Layout,-0.20105916905744653,-0.20799146400921306,-1.0328779931638317,0.6254,0.5397068245657072,0.09169545665391451,1.2370747135225677
136,2 BHK Apartment for Sale in Magadi Main Road Bangalore,25000000.0,18423.0,2.0,1240.0,9.0,Resale,Semi,2.0,apartment,12.990132,77.504252,Bhairaweswara Layout,-0.21391048194027867,-0.20536887810736063,1.015215233822327,0.4379,-0.03230063857848285,0.021293914837142103,-0.41578886498116197
137,"2 BHK Builder Floor for Sale in Hosa Road, off Hosur Road Bangalore",11399999.999999998,9194.0,2.0,798.0,6.0,New Property,Unfurnished,2.0,apartment,12.89248661,77.67369006,Amrita Nagar,-0.20395440736208456,-0.19095458968467924,-0.9393074883028678,0.6174,-0.09453505056857074,-0.03783210476673383,-0.6457434453080894
138,2 BHK Apartment for Sale in Haralur Bangalore,17500000.0,13089.0,2.0,940.0,1.0,Resale,Semi,2.0,apartment,12.900521,77.710237,Carmelaram,-0.20262496120179158,-0.189623428658739,1.015215233822327,0.436,-0.06662108636713425,-0.012878605323988487,-0.5718666344338277
140,2 BHK Apartment for Sale in Whitefield Bangalore,7490000.000000001,6596.0,2.0,1135.0,1.0,New Property,Unfurnished,2.0,apartment,12.9680475,77.739097,Palm Meadows,-0.20176820700960277,-0.20705766448355348,-1.0565458267463108,0.6272,-0.112427444015721,-0.05447631312417988,-0.4704160842895949
141,2 BHK Apartment for Sale in Whitefield Bangalore,1280000.0,999.0,2.0,1285.0,1.0,New Property,Unfurnished,2.0,apartment,12.987640092513391,77.73737258207825,Kadugodi,-0.20079327982538794,-0.208537836072099,-1.1556204789520375,0.6346,-0.14084477478472435,-0.09033375507053307,-0.3923771995632621
142,2 BHK Apartment for Sale in Sarjapura Attibele Road Bangalore,5680000.0,5438.0,2.0,1045.0,1.0,New Property,Unfurnished,2.0,apartment,12.810395,77.784537,Bidaraguppe,-0.18476114390718815,-0.18752734674475846,1.015215233822327,0.4342,-0.12071011208204886,-0.06189509421652882,-0.5172394151253946
143,2 BHK Apartment for Sale in Kanakapura Road Bangalore,6950000.0,4996.0,2.0,1391.0,1.0,New Property,Unfurnished,2.0,apartment,12.8877879,77.5411372,Deepika Layout,-0.2098729047127222,-0.19923957696553127,-1.1088352265215553,0.6316,-0.1148985162565039,-0.06472678786317669,-0.3372297210233202
144,2 BHK Apartment for Sale in Yelahanka New Town Bangalore,7309999.999999999,6993.0,2.0,1045.0,1.0,New Property,Unfurnished,2.0,apartment,13.09982885,77.58107977,Yelahanka Satellite Town,-0.20450588132487277,-0.2205282193430683,1.015215233822327,0.4377,-0.11325113476264863,-0.0519329140795663,-0.5172394151253946
145,8 BHK Villa for Sale in Sadahalli Bangalore,70000000.0,14000.0,8.0,3900.0,1.0,Resale,Semi,8.0,villa,13.2112546,77.6463784,Sadahalli,-0.1940377237812325,-0.23473389297810235,1.015215233822327,0.4374,0.17362204815342558,-0.007042241269472183,0.9681006908324737
146,2 BHK Apartment for Sale in Kudlu Gate Bangalore,13680800000.0,9786000.0,2.0,1200.0,1.0,New Property,Semi,2.0,apartment,12.89092305,77.64017994,Kudlu Gate,-0.20771624760824695,-0.19929918119057335,-1.1148897886007942,0.6318,62.457455483056954,62.5977322271535,-0.43659923424151736
147,2 BHK Apartment for Sale in Attibele Bangalore,7230000.0,6984.0,2.0,849.0,1.0,New Property,Unfurnished,2.0,apartment,12.78052495,77.77375337,Attibele,-0.1874889704731226,-0.1788847341136538,1.015215233822327,0.434,-0.11361721953906091,-0.05199057299997316,-0.6192102245011363
148,2 BHK Apartment for Sale in Hebbal Bangalore,25500000.0,18563.0,2.0,1375.0,1.0,New Property,Unfurnished,2.0,apartment,13.12173909,77.59683857,BSF Campus,-0.20338323790062537,-0.22688600334755907,1.015215233822327,0.4379,-0.030012608725906092,0.02219083137680432,-0.3455538687274624
149,2 BHK Apartment for Sale in Bagaluru Bangalore,10600000.0,10435.0,2.0,1025.0,1.0,New Property,Unfurnished,2.0,apartment,13.13235055,77.66755368,Dasanayakanahalli,-0.1982230172488215,-0.23209143900123588,1.015215233822327,0.4377,-0.09819589833269354,-0.029881580297299433,-0.5276445997555723
150,2 BHK Apartment for Sale in Soukya Road Bangalore,11800000.0,9417.0,2.0,1261.0,1.0,New Property,Unfurnished,2.0,apartment,12.99388554,77.80352945,Koralur,-0.19363396605847685,-0.19323941831129313,1.015215233822327,0.4353,-0.09270462668650932,-0.036403444849986144,-0.4048634211194754
151,2 BHK Apartment for Sale in Sarjapur Road Bangalore,17700000.0,11360.0,2.0,1561.0,1.0,New Property,Unfurnished,2.0,apartment,12.91235,77.680996,Kaikondrahalli,-0.20602243472254034,-0.19305067159865977,1.015215233822327,0.4365,-0.06570587442610355,-0.023955524588816904,-0.24878565166680966
152,2 BHK Apartment for Sale in Hebbal Bangalore,25500000.0,18563.0,2.0,1375.0,1.0,New Property,Unfurnished,2.0,apartment,13.12173909,77.59683857,BSF Campus,-0.20338323790062537,-0.22688600334755907,1.015215233822327,0.4379,-0.030012608725906092,0.02219083137680432,-0.3455538687274624
153,2 BHK Apartment for Sale in Kanakapura Road Bangalore,15000000.0,11053.0,2.0,1359.0,1.0,New Property,Unfurnished,2.0,apartment,12.85415717,77.54515367,Mallasandra,-0.19982820039050858,-0.18536172656822877,-0.9073834337032447,0.6141,-0.07806123563001806,-0.025922334429361916,-0.35387801643160455
154,"2 BHK Apartment for Sale in Bellandur, Outer Ring Road Bangalore",24600000.0,18349.0,2.0,882.0,1.0,New Property,Unfurnished,2.0,apartment,12.9145263,77.6845091,Kaikondrahalli,-0.20467329306357634,-0.1916897084601985,1.015215233822327,0.4363,-0.03413106246054426,0.0208198303804635,-0.602041669861343
155,2 BHK Apartment for Sale in Soukya Road Bangalore,11800000.0,9417.0,2.0,1261.0,1.0,New Property,Unfurnished,2.0,apartment,12.99388554,77.80352945,Koralur,-0.19363396605847685,-0.19323941831129313,1.015215233822327,0.4353,-0.09270462668650932,-0.036403444849986144,-0.4048634211194754
156,2 BHK Apartment for Sale in Sarjapur Road Bangalore,10300000.0,8769.0,2.0,1184.0,1.0,New Property,Unfurnished,2.0,apartment,12.91235,77.680996,Kaikondrahalli,-0.20602243472254034,-0.19305067159865977,1.015215233822327,0.4365,-0.0995687162442396,-0.04055488711927985,-0.44492338194565956
157,2 BHK Apartment for Sale in Thanisandra Main Road Bangalore,14100000.0,11750.0,2.0,797.0,1.0,New Property,Unfurnished,2.0,apartment,13.09008887,77.63536252,Agrahara Badavane,-0.20245754946308803,-0.22273357566962607,1.015215233822327,0.4377,-0.08217968936465622,-0.021456971371186434,-0.6462637045395982
158,2 BHK Apartment for Sale in Devanahalli Bangalore,13200000.0,10858.0,2.0,1217.0,1.0,New Property,Unfurnished,2.0,apartment,13.24032816,77.71506051,Devanahalli,-0.18646480454223024,-0.23140599041325172,1.015215233822327,0.4365,-0.08629814309929439,-0.02717161103817715,-0.42775482730586634
159,2 BHK Apartment for Sale in Electronic City Bangalore,11399999.999999998,9893.0,2.0,1160.0,1.0,New Property,Unfurnished,2.0,apartment,12.8339509,77.675366,Veer Sandra,-0.20030089235861276,-0.19180891691028268,-1.1137889591318417,0.6307,-0.09453505056857074,-0.0333539286151346,-0.4574096035018728
160,2 BHK Apartment for Sale in Sarjapur Road Bangalore,15000000.0,17503.0,2.0,857.0,1.0,New Property,Unfurnished,2.0,apartment,12.94162601,77.74251723,Patel Layout,-0.20028119685994175,-0.2046933635568835,1.015215233822327,0.4365,-0.07806123563001806,0.015399891862218941,-0.6150481506490652
161,2 BHK Apartment for Sale in Budigere Cross Bangalore,13000000.0,11278.0,2.0,773.0,1.0,New Property,Unfurnished,2.0,apartment,13.06388092,77.74555733,Budigere Cross,-0.19672615934982496,-0.2201805280303227,1.015215233822327,0.437,-0.0872133550403251,-0.02448086141919049,-0.6587499260958115
162,2 BHK Apartment for Sale in Panathur Bangalore,14000000.0,10574.0,2.0,1324.0,1.0,New Property,Unfurnished,2.0,apartment,12.93555355,77.70595213,Kadubeesanahalli,-0.2020242484923259,-0.19680573777631213,1.015215233822327,0.4363,-0.08263729533517157,-0.028991070304349085,-0.37208708953441555
163,2 BHK Apartment for Sale in Anekal Bangalore,22000000.0,13127.0,2.0,1678.0,1.0,New Property,Unfurnished,2.0,apartment,12.7187505,77.7017436,Vinayaka Nagar,-0.1859921125741261,-0.17737476041258723,1.015215233822327,0.4338,-0.04602881769394341,-0.012635156548937312,-0.18791532158027005
164,2 BHK Apartment for Sale in Hosur Road Bangalore,14000000.0,10991.0,2.0,1275.0,1.0,New Property,Unfurnished,3.0,apartment,12.86269451,77.65907861,Pragathi Nagar,-0.19943429041708846,-0.1909347216096652,-0.8479386423798088,0.6094,-0.08263729533517157,-0.026319540325498044,-0.39757979187835096
165,2 BHK Apartment for Sale in Jakkur Bangalore,17700000.0,13941.0,2.0,1273.0,1.0,New Property,Unfurnished,2.0,apartment,13.0632151,77.620213,Phase III,-0.20820863507502213,-0.21895864141695964,1.015215233822327,0.438,-0.06570587442610355,-0.007420227525472689,-0.39862031034136874
166,2 BHK Apartment for Sale in Bannerghatta Main Road Bangalore,17000000.0,13622.0,2.0,1248.0,1.0,New Property,Unfurnished,2.0,apartment,12.87052719,77.59332459,Kalena Agrahara,-0.2081790918270156,-0.19864353471511026,-0.8149137583112332,0.6079,-0.06890911621971102,-0.009463915926560177,-0.41162679112909084
167,2 BHK Apartment for Sale in Yelahanka Bangalore,13899999.999999998,11946.0,2.0,1171.0,1.0,New Property,Unfurnished,2.0,apartment,13.094892093768584,77.59735486472457,Nehru Nagar,-0.20776548635492445,-0.2253660956089855,1.015215233822327,0.4383,-0.08309490130568695,-0.020201288215659325,-0.4516867519552751
168,2 BHK Apartment for Sale in Electronic City Bangalore,14800000.0,10137.0,2.0,1467.0,1.0,New Property,Unfurnished,2.0,apartment,12.840728,77.651771,Karuna Nagar,-0.1993555084224044,-0.19085524930960907,-0.9574711745405842,0.6184,-0.07897644757104876,-0.031790731217437584,-0.2976900194286449
169,2 BHK Apartment for Sale in Yelahanka Bangalore,14500000.0,12083.0,2.0,1200.0,1.0,New Property,Unfurnished,2.0,apartment,13.12173909,77.59683857,BSF Campus,-0.20338323790062537,-0.22688600334755907,1.015215233822327,0.4379,-0.08034926548259481,-0.019323591316132725,-0.43659923424151736
170,2 BHK Apartment for Sale in Yelahanka Bangalore,14500000.0,12083.0,2.0,1200.0,1.0,New Property,Unfurnished,2.0,apartment,13.12173909,77.59683857,BSF Campus,-0.20338323790062537,-0.22688600334755907,1.015215233822327,0.4379,-0.08034926548259481,-0.019323591316132725,-0.43659923424151736
171,2 BHK Apartment for Sale in Haralur Main Road Bangalore,21900000.0,16524.0,2.0,1331.0,1.0,New Property,Unfurnished,2.0,apartment,12.903428514109851,77.66190007338585,Eastwood Township,-0.20553004725576515,-0.19255396972330893,-0.9596728334784892,0.6193,-0.046486423664458765,0.009127882631295272,-0.36844527491385337
172,2 BHK Apartment for Sale in Stage 6th Banashankari Bangalore,13600000.000000002,10317.0,2.0,1321.0,1.0,New Property,Unfurnished,2.0,apartment,12.899261784457838,77.51076440722022,Banakshankari 6th Stage 11th Block,-0.20999107770474823,-0.19561365327547012,-0.8947238948102907,0.6146,-0.08446771921723296,-0.030637552809300445,-0.3736478672289422
173,2 BHK Apartment for Sale in Gunjur Bangalore,14000000.0,10680.0,2.0,1320.0,1.0,New Property,Unfurnished,3.0,apartment,12.94162601,77.74251723,Patel Layout,-0.20028119685994175,-0.2046933635568835,1.015215233822327,0.4365,-0.08263729533517157,-0.028311976352890546,-0.3741681264604511
174,2 BHK Apartment for Sale in Whitefield Bangalore,16600000.0,13897.0,2.0,1195.0,1.0,New Property,Unfurnished,1.0,apartment,12.930376,77.740121,Gunjur Village,-0.19922748768104287,-0.2036304215436327,1.015215233822327,0.4364,-0.07073954010177243,-0.007702115580795102,-0.4392005303990618
175,2 BHK Apartment for Sale in Whitefield Bangalore,12100000.0,9081.0,2.0,1340.0,1.0,New Property,Unfurnished,2.0,apartment,12.9680475,77.739097,Palm Meadows,-0.20176820700960277,-0.20705766448355348,-1.0565458267463108,0.6272,-0.09133180877496326,-0.03855604454517547,-0.3637629418302734
176,2 BHK Apartment for Sale in Sarjapur Road Bangalore,9700000.0,8543.0,2.0,1135.0,1.0,New Property,Unfurnished,2.0,apartment,12.91235,77.680996,Kaikondrahalli,-0.20602243472254034,-0.19305067159865977,1.015215233822327,0.4365,-0.10231435206733171,-0.04200276667616315,-0.4704160842895949
177,2 BHK Apartment for Sale in Anekal Bangalore,22000000.0,13127.0,2.0,1678.0,1.0,New Property,Unfurnished,3.0,apartment,12.7187505,77.7017436,Vinayaka Nagar,-0.1859921125741261,-0.17737476041258723,1.015215233822327,0.4338,-0.04602881769394341,-0.012635156548937312,-0.18791532158027005
178,2 BHK Apartment for Sale in Yelahanka Bangalore,14500000.0,12083.0,2.0,1200.0,1.0,New Property,Unfurnished,2.0,apartment,13.12173909,77.59683857,BSF Campus,-0.20338323790062537,-0.22688600334755907,1.015215233822327,0.4379,-0.08034926548259481,-0.019323591316132725,-0.43659923424151736
179,2 BHK Apartment for Sale in Sarjapur Road Bangalore,13700000.000000002,10213.0,2.0,1345.0,1.0,New Property,Unfurnished,2.0,apartment,12.89892838,77.74859093,Bengaluru,-0.19585955740830063,-0.19936871945312248,1.015215233822327,0.4358,-0.08401011324671762,-0.03130383366733524,-0.36116164567272896
180,2 BHK Apartment for Sale in Koramangala Bangalore,22100000.0,14323.0,2.0,1543.0,1.0,New Property,Unfurnished,2.0,apartment,12.928728,77.626569,Koramangala 3 Block,-0.2119901708198555,-0.20360061943111166,-1.0224201132087827,0.6254,-0.04557121172342806,-0.004972926681537203,-0.25815031783396963
181,2 BHK Apartment for Sale in Devanahalli Bangalore,12100000.0,10095.0,2.0,840.0,1.0,New Property,Unfurnished,2.0,apartment,13.194302866704644,77.65990582883578,Yerthiganahalli,-0.19443163375465264,-0.23681010681706888,1.015215233822327,0.4376,-0.09133180877496326,-0.03205980617933625,-0.6238925575847162
182,2 BHK Apartment for Sale in Hebbal Bangalore,25500000.0,18563.0,2.0,1375.0,1.0,New Property,Unfurnished,2.0,apartment,13.12173909,77.59683857,BSF Campus,-0.20338323790062537,-0.22688600334755907,1.015215233822327,0.4379,-0.030012608725906092,0.02219083137680432,-0.3455538687274624
183,2 BHK Apartment for Sale in Kumbalgodu Bangalore,12200000.0,9037.0,2.0,1350.0,1.0,New Property,Unfurnished,2.0,apartment,12.87938554,77.4451746,Kumblugudu,-0.2040725803541106,-0.18370274230455697,-1.0345292373672603,0.6246,-0.09087420280444791,-0.038837932600497886,-0.3585603495151845
184,2 BHK Apartment for Sale in Gunjur Bangalore,14200000.0,10680.0,2.0,1330.0,1.0,New Property,Unfurnished,3.0,apartment,12.94162601,77.74251723,Patel Layout,-0.20028119685994175,-0.2046933635568835,1.015215233822327,0.4365,-0.08172208339414087,-0.028311976352890546,-0.36896553414536226
185,"2 BHK Apartment for Sale in Hosa Road, off Hosur Road Bangalore",15000000.0,11739.0,2.0,1278.0,1.0,New Property,Unfurnished,3.0,apartment,12.877316,77.6381045,AECS C Block,-0.20641634469596046,-0.19797795420214012,-1.091221955018315,0.6299,-0.07806123563001806,-0.02152744338501704,-0.3960190141838243
186,2 BHK Apartment for Sale in Kanakapura Road Bangalore,22000000.0,17889.0,2.0,1230.0,1.0,New Property,Unfurnished,2.0,apartment,12.746104,77.487602,Kanakapura,-0.18806013993458182,-0.17349055174734365,1.015215233822327,0.4338,-0.04602881769394341,0.017872818893001918,-0.4209914572962508
187,2 BHK Apartment for Sale in Gunjur Bangalore,14200000.0,10680.0,2.0,1330.0,1.0,New Property,Unfurnished,3.0,apartment,12.94162601,77.74251723,Patel Layout,-0.20028119685994175,-0.2046933635568835,1.015215233822327,0.4365,-0.08172208339414087,-0.028311976352890546,-0.36896553414536226
188,2 BHK Apartment for Sale in RR Nagar Bangalore,15300000.0,11012.0,2.0,1390.0,1.0,New Property,Unfurnished,2.0,apartment,12.915409,77.515634,BEML Layout 3rd Stage,-0.21171443383846136,-0.19735210983919807,-0.9679290544956332,0.6208,-0.076688417718472,-0.02618500284454871,-0.3377499802548291
189,2 BHK Apartment for Sale in Samethanahalli Bangalore,10000000.0,8354.0,2.0,1197.0,1.0,New Property,Unfurnished,2.0,apartment,12.97893569,77.78972783,Thirumalashettyhally,-0.19498310771744085,-0.1941434157244316,-0.8308757856110447,0.6077,-0.10094153415578566,-0.04321360400470715,-0.43816001193604404
190,2 BHK Apartment for Sale in Soukya Road Bangalore,11800000.0,9417.0,2.0,1261.0,1.0,New Property,Unfurnished,2.0,apartment,12.99388554,77.80352945,Koralur,-0.19363396605847685,-0.19323941831129313,1.015215233822327,0.4353,-0.09270462668650932,-0.036403444849986144,-0.4048634211194754
191,2 BHK Apartment for Sale in Anekal Bangalore,17500000.0,13127.0,2.0,1337.0,1.0,New Property,Unfurnished,2.0,apartment,12.7187505,77.7017436,Vinayaka Nagar,-0.1859921125741261,-0.17737476041258723,1.015215233822327,0.4338,-0.06662108636713425,-0.012635156548937312,-0.36532371952480003
192,2 BHK Apartment for Sale in Anekal Bangalore,18500000.0,13771.0,2.0,1347.0,1.0,New Property,Unfurnished,2.0,apartment,12.7187505,77.7017436,Vinayaka Nagar,-0.1859921125741261,-0.17737476041258723,1.015215233822327,0.4338,-0.06204502666198073,-0.0085093404664911,-0.3601211272097112
193,2 BHK Apartment for Sale in Whitefield Bangalore,23900000.0,18427.0,2.0,1297.0,8.0,Resale,Semi,3.0,apartment,12.9680475,77.739097,Palm Meadows,-0.20176820700960277,-0.20705766448355348,-1.0565458267463108,0.6272,-0.037334304254151726,0.021319541023989592,-0.3861340887851555
194,"2 BHK Apartment for Sale in Bellandur, Outer Ring Road Bangalore",10500000.0,10145.0,2.0,1035.0,2.0,New Property,Unfurnished,2.0,apartment,12.932279,77.6748335,Bellandur,-0.20659360418399952,-0.19817663495228044,1.015215233822327,0.4368,-0.09865350430320889,-0.0317394788437426,-0.5224420074404835
195,2 BHK Apartment for Sale in Whitefield Bangalore,9050000.0,8500.0,2.0,840.0,5.0,New Property,Unfurnished,2.0,apartment,12.9680475,77.739097,Palm Meadows,-0.20176820700960277,-0.20705766448355348,-1.0565458267463108,0.6272,-0.10528879087568149,-0.04227824818477369,-0.6238925575847162
196,2 BHK Apartment for Sale in Anchepalya Bangalore,10000000.0,9311.0,2.0,716.0,2.0,Resale,Semi,2.0,apartment,12.887440062596552,77.45362113253019,Anchepalya,-0.20431877408749818,-0.18395109324223238,-1.0482896057291669,0.6257,-0.10094153415578566,-0.03708253880144469,-0.688404702291818
197,2 BHK Apartment for Sale in Kogilu Bangalore,11000000.0,9590.0,2.0,1147.0,3.0,Resale,Semi,2.0,apartment,13.0992238,77.609323,Prakruthi Nagar,-0.20522476702636455,-0.22400513247052417,1.015215233822327,0.438,-0.09636547445063214,-0.03529511226883212,-0.4641729735114883
199,8 BHK  House for Sale in Kanaka Nagar Hebbal Bangalore,34000000.0,12143.0,8.0,2800.0,1.0,Resale,Semi,6.0,house,13.0362824,77.6069125,Kanaka Nagar,-0.21295525025473483,-0.21593869401482654,1.015215233822327,0.4384,0.00888389876789883,-0.018939198513420345,0.3958155361726996
200,2 BHK Apartment for Sale in Bommanahalli Bangalore,7400000.0,7028.0,2.0,1000.0,4.0,Resale,Semi,2.0,apartment,12.9018820106939,77.6208181102629,Kaveri Nagar,-0.20995168670740624,-0.20154427366715916,-1.0917723697527915,0.6304,-0.1128392893891848,-0.051708684944650744,-0.5406510805432945
201,2 BHK Apartment for Sale in Electronic City Bangalore,6500000.0,5909.0,2.0,850.0,1.0,Resale,Furnished,2.0,apartment,12.833950996398926,77.67536926269531,Veer Sandra,-0.20030089235861276,-0.19180891691028268,-1.1137889591318417,0.6307,-0.11695774312382298,-0.05887761071523663,-0.6186899652696274
202,2 BHK Apartment for Sale in Abbigere Bangalore,11000000.0,8675.0,2.0,900.0,3.0,Resale,Semi,2.0,apartment,13.0744405,77.523687,Lakshmaiah Layout,-0.20774579085625344,-0.21028622667333396,-0.8914214064034331,0.6148,-0.09636547445063214,-0.041157102510195914,-0.5926770036941831
203,2 BHK Apartment for Sale in Mailasandra Bangalore,11000000.0,8088.0,2.0,906.0,4.0,Resale,Semi,2.0,apartment,12.90917257,77.47885648,Fort Kengeri,-0.20775563860558896,-0.18599750496867784,-1.1704816767828963,0.6353,-0.09636547445063214,-0.04491774543006537,-0.5895554483051297
204,2 BHK Apartment for Sale in Haralur Main Road Bangalore,13500000.0,13818.0,2.0,977.0,10.0,Resale,Semi,2.0,apartment,12.90330525,77.66164676,Eastwood Township,-0.20552019950642963,-0.19253410164829493,-0.9618744924163942,0.6195,-0.08492532518774834,-0.008208232771033068,-0.5526170428679988
205,2 BHK Apartment for Sale in Jakkur Bangalore,7330000.0,5959.0,2.0,1230.0,1.0,New Property,Unfurnished,2.0,apartment,13.0632151,77.620213,Phase III,-0.20820863507502213,-0.21895864141695964,1.015215233822327,0.438,-0.11315961356854555,-0.058557283379642985,-0.4209914572962508
207,2 BHK Apartment for Sale in Gummanahalli Bangalore,10500000.0,11615.0,2.0,535.0,18.0,Resale,Unfurnished,2.0,apartment,13.13235055,77.66755368,Dasanayakanahalli,-0.1982230172488215,-0.23209143900123588,1.015215233822327,0.4377,-0.09865350430320889,-0.02232185517728929,-0.7825716231949263
208,2 BHK Apartment for Sale in Ayyappa Nagar Krishnarajapura Bangalore,6250000.0,5274.0,2.0,946.0,1.0,Resale,Unfurnished,2.0,apartment,13.000251,77.7157235,Ayyappa Nagar,-0.20381653887138754,-0.21072332432364269,-1.082415319266695,0.6296,-0.11810175805011136,-0.06294576787727599,-0.5687450790447743
209,2 BHK Apartment for Sale in Chandapura Bangalore,9700000.0,8056.0,2.0,744.0,5.0,Resale,Unfurnished,2.0,apartment,12.800182342529297,77.72859191894531,Guddahatti,-0.1910440079832394,-0.18247092165368686,1.015215233822327,0.4345,-0.10231435206733171,-0.0451227549248453,-0.6738374438095692
210,2 BHK Apartment for Sale in Budigere Bangalore,10000000.0,8163.0,2.0,862.0,11.0,Resale,Furnished,2.0,apartment,13.1351104,77.7469396,Budigere,-0.18397332396034785,-0.22897215122403258,1.015215233822327,0.4361,-0.10094153415578566,-0.04443725442667489,-0.6124468544915207
211,2 BHK Apartment for Sale in Bommasandra Bangalore,6500000.0,5328.0,2.0,1055.0,2.0,Resale,Semi,2.0,apartment,12.8214895559446,77.6875518339378,Vidyanagar,-0.19861692722224164,-0.19011019649658278,-1.1572717231554661,0.6336,-0.11695774312382298,-0.06259981435483485,-0.5120368228103058
212,"2 BHK Apartment for Sale in Sowparnika Indraprastha, Whitefield, Bangalore,Sowparnika Indraprastha, Whitefield, Bangalore Bangalore",5600000.0,8223.0,2.0,681.0,4.0,Resale,Furnished,1.0,apartment,12.98665147327171,77.82187751715503,Whitefield,-0.19115233322592992,-0.19476926008737372,1.015215233822327,0.4351,-0.12107619685846115,-0.04405286162396251,-0.706613775394629
213,2 BHK Apartment for Sale in Bagalur Main Road Bangalore,11000000.0,13767.0,2.0,799.0,21.0,Resale,Furnished,2.0,apartment,13.1215691,77.62140164,Kattigenahalli,-0.20413166685012363,-0.22752178174800816,1.015215233822327,0.4381,-0.09636547445063214,-0.008534966653338591,-0.6452231860765805
214,2 BHK Apartment for Sale in Bannerghatta Main Road Bangalore,5500000.0,6901.0,2.0,797.0,3.0,Resale,Semi,2.0,apartment,12.87052719,77.59332459,Kalena Agrahara,-0.2081790918270156,-0.19864353471511026,-0.8149137583112332,0.6079,-0.1215338028289765,-0.05252231637705862,-0.6462637045395982
215,2 BHK Apartment for Sale in Thanisandra Main Road Bangalore,8500000.0,9189.0,2.0,925.0,1.0,Resale,Semi,2.0,apartment,13.085432,77.620486,Sampigehalli,-0.20336354240195434,-0.2200414515052245,1.015215233822327,0.4376,-0.10780562371351593,-0.03786413750029319,-0.5796705229064609
216,2 BHK Apartment for Sale in Whitefield Bangalore,9800000.0,8958.0,2.0,1094.0,1.0,Resale,Unfurnished,2.0,apartment,12.968047142028809,77.73909759521484,Palm Meadows,-0.20176820700960277,-0.20705766448355348,-1.0565458267463108,0.6272,-0.10185674609681636,-0.03934404979073585,-0.49174671278145926
217,2 BHK Apartment for Sale in Nanjapa Thindlu Road Bangalore,4800000.0,4364.0,2.0,950.0,2.0,Resale,Semi,2.0,apartment,13.07045841217041,77.5653076171875,Lakeshore Garden,-0.2109069183929501,-0.21862088414172107,1.015215233822327,0.4383,-0.12473704462258396,-0.06877572538508042,-0.5666640421187388
218,2 BHK Villa for Sale in Attibele Bangalore,7500000.0,6545.0,2.0,1146.0,1.0,Resale,Semi,3.0,villa,12.7808916,77.7739656,Attibele,-0.1882373994226209,-0.1796397209641871,1.015215233822327,0.4341,-0.11238168341866946,-0.0548030470064854,-0.4646932327429972
219,2 BHK Apartment for Sale in Whitefield Bangalore,16700000.0,14991.0,2.0,693.0,26.0,Resale,Unfurnished,2.0,apartment,12.9680475,77.739097,Palm Meadows,-0.20176820700960277,-0.20705766448355348,-1.0565458267463108,0.6272,-0.07028193413125707,-0.0006933534780060385,-0.7003706646165224
220,2 BHK Apartment for Sale in Whitefield Bangalore,16800000.0,13462.0,2.0,847.0,18.0,Resale,Unfurnished,2.0,apartment,12.9680475,77.739097,Palm Meadows,-0.20176820700960277,-0.20705766448355348,-1.0565458267463108,0.6272,-0.06982432816074172,-0.010488963400459857,-0.620250742964154
222,2 BHK Apartment for Sale in Devanahalli Bangalore,9500000.0,6690.0,2.0,1420.0,1.0,Resale,Semi,2.0,apartment,13.237094,77.724275,Devanahalli,-0.18556865935269942,-0.23051192703762022,1.015215233822327,0.4364,-0.10322956400836242,-0.05387409773326382,-0.32214220330956256
223,"2 BHK Apartment for Sale in Eastwood Township, Haralur Bangalore",21500000.0,18313.0,2.0,821.0,10.0,Resale,Semi,2.0,apartment,12.903428514109851,77.66190007338585,Eastwood Township,-0.20553004725576515,-0.19255396972330893,-0.9596728334784892,0.6193,-0.04831684754652017,0.02058919469883607,-0.633777482983385
224,2 BHK Apartment for Sale in Amrutahalli Bangalore,9800000.0,8256.0,2.0,1187.0,1.0,Resale,Semi,2.0,apartment,13.066361,77.603304,Swami Vivekananda Layout,-0.2103455966808264,-0.22100505314340513,1.015215233822327,0.4383,-0.10185674609681636,-0.0438414455824707,-0.4433626042511329
225,2 BHK Apartment for Sale in Varthur Road Bangalore,16000000.0,13223.0,2.0,1100.0,3.0,Resale,Semi,2.0,apartment,12.9358405,77.708067,Balagere,-0.20033043560661928,-0.19907069832791197,1.015215233822327,0.4363,-0.07348517592486453,-0.012020128064597504,-0.4886251573924059
226,2 BHK Apartment for Sale in Koramangala Bangalore,13500000.0,10000.0,2.0,1250.0,1.0,Resale,Semi,2.0,apartment,12.928728,77.626569,Koramangala 3 Block,-0.2119901708198555,-0.20360061943111166,-1.0224201132087827,0.6254,-0.08492532518774834,-0.03266842811696419,-0.4105862726660731
227,8 BHK  House for Sale in Sanjayanagara Bangalore,30000000.0,28571.0,8.0,800.0,3.0,Resale,Semi,8.0,house,13.020277976989746,77.60861206054688,D Nagaraj Layout,-0.21321129173745793,-0.214438654351267,1.015215233822327,0.4383,-0.00942034005271525,0.08630755086922931,-0.6447029268450716
228,"> 10 BHK Apartment for Sale in Garudachar Palya, Mahadevapura Bangalore",120000000.0,10909.0,10.0,10000.0,0.0,Resale,Semi,,apartment,13.048646926879885,77.62638854980469,Fathima Layout,-0.20866163154445527,-0.21616717687748793,1.015215233822327,0.4379,0.4024250334111016,-0.026844877155871628,4.141682003036676
229,2 BHK Apartment for Sale in Phase 7 JP Nagar Bangalore,16200000.000000002,11361.0,2.0,907.0,0.0,Resale,Semi,2.0,apartment,12.90369008,77.58574868,JP Nagar 6th Phase,-0.21274844751868924,-0.2024582051178047,-1.0681045361703123,0.629,-0.07256996398383382,-0.023949118042105033,-0.5890351890736208
230,8 BHK  House for Sale in Avalahalli Bangalore,27500000.0,5288.0,8.0,5000.0,1.0,Resale,Furnished,10.0,house,13.048611640930176,77.62644958496094,Fathima Layout,-0.20866163154445527,-0.21617711091499492,1.015215233822327,0.4379,-0.02086048931559905,-0.06285607622330977,1.5403858454922479
231,2 BHK Apartment for Sale in ASN Serenity Bangalore,6900000.0,7667.0,2.0,750.0,4.0,Resale,Semi,2.0,apartment,13.037995,77.706127,GNR Layout,-0.20140384028418917,-0.2178261611411597,1.015215233822327,0.4373,-0.11512731924176156,-0.0476149015957639,-0.6707158884205159
232,2 BHK Apartment for Sale in Hennur Main Road Bangalore,8500000.0,7812.0,2.0,1088.0,4.0,Resale,Semi,2.0,apartment,13.055185,77.638242,THE DEFENCE ENCLAVE,-0.20413166685012363,-0.2213626784936577,1.015215233822327,0.4377,-0.10780562371351593,-0.046685952322542315,-0.49486826817051255
233,2 BHK Apartment for Sale in Mohammed Sab Palya Bangalore,10000000.0,7042.0,2.0,1420.0,3.0,Resale,Semi,2.0,apartment,13.0957942,77.5391783,Cb Halli,-0.20747990162419486,-0.21380287595081793,1.015215233822327,0.4377,-0.10094153415578566,-0.05161899329068453,-0.32214220330956256
234,2 BHK Apartment for Sale in HAL Old Airport Road Bangalore,9600000.0,8496.0,2.0,980.0,4.0,Resale,Semi,2.0,apartment,12.95713316,77.67437979,Vinayaka Nagar,-0.21021757593946483,-0.20148466944211707,1.015215233822327,0.4374,-0.10277195803784707,-0.042303874371621183,-0.5510562651734722
235,> 10 BHK  House for Sale in Neraluru Bangalore,22000000.0,3143.0,10.0,7500.0,1.0,Resale,Furnished,,house,12.79488,77.72908,Neraluru,-0.19162502519403413,-0.1830669639041079,1.015215233822327,0.4346,-0.04602881769394341,-0.07659811892027736,2.841033924264462
236,7 BHK  House for Sale in Mahendra Bangalore,29000000.0,7250.0,7.0,4000.0,1.0,Resale,Semi,7.0,house,,,,4.925462484520326,4.925303209291644,1.015215233822327,0.1107,-0.01399639975786877,-0.05028643157461494,1.0201266139833622
237,> 10 BHK  House for Sale in Varthur Road Bangalore,3500000.0,538.0,10.0,6000.0,1.0,Resale,Semi,,house,12.955775260925291,77.71436309814453,Silver Springs Layout,-0.20584517523450127,-0.19849452415250501,-0.8677535728209541,0.6121,-0.13068592223928355,-0.09328717310470652,2.0606450770011335
238,2 BHK Apartment for Sale in Konena Agrahara Murgesh Pallya Bangalore,7000000.0,6494.0,2.0,1078.0,3.0,Resale,Semi,2.0,apartment,12.95858,77.659787,Murugeshpalya,-0.2117439770864679,-0.2037496299937169,-0.8853668443241943,0.6144,-0.11466971327124621,-0.055129780888790926,-0.5000708604856015
239,2 BHK Apartment for Sale in Kadugodi Bangalore,10500000.0,9052.0,2.0,1160.0,3.0,Resale,Unfurnished,2.0,apartment,12.99259156,77.76244318,Patalamma Layout,-0.19702159182989007,-0.2093027569601393,-0.9442612209131539,0.618,-0.09865350430320889,-0.03874183439981979,-0.4574096035018728
240,2 BHK Builder Floor for Sale in Sarjapur Road Bangalore,13500000.0,10976.0,2.0,1230.0,2.0,Resale,Unfurnished,2.0,apartment,12.900521,77.710237,Carmelaram,-0.20262496120179158,-0.189623428658739,1.015215233822327,0.436,-0.08492532518774834,-0.02641563852617614,-0.4209914572962508
241,2 BHK Apartment for Sale in Borewell Road Bangalore,11800000.0,9958.0,2.0,1185.0,2.0,Resale,Semi,2.0,apartment,12.969490777611,77.7379898432811,Nallurhalli,-0.20189622775096433,-0.20706759852106052,-1.063701218294502,0.6278,-0.09270462668650932,-0.032937503078862854,-0.44440312271415067
242,2 BHK Apartment for Sale in Haralur Main Road Bangalore,23000000.0,18699.0,2.0,900.0,6.0,Resale,Furnished,2.0,apartment,12.9007264,77.6603151,Lakedew Residency,-0.20517552827968702,-0.19218641033554934,-0.9745340313093481,0.6204,-0.04145275798878989,0.02306212172961905,-0.5926770036941831
243,2 BHK  House for Sale in Anekal Bangalore,2500000.0,3333.0,2.0,600.0,4.0,Resale,Unfurnished,1.0,house,12.7208595,77.719378,Karpur,-0.1796895529994038,-0.1710169764080965,1.015215233822327,0.4328,-0.13526198194443706,-0.07538087504502149,-0.7487547731468487
244,2 BHK Apartment for Sale in Horamavu Agara Main Road Bangalore,6000000.0,6780.0,2.0,800.0,1.0,Resale,Semi,2.0,apartment,13.03270207,77.65964967,Horamavu Agara,-0.2042892308394917,-0.2182831268664825,1.015215233822327,0.4376,-0.11924577297639974,-0.05329750852919525,-0.6447029268450716
245,2 BHK Villa for Sale in Aishwarya shalvi garden Bangalore,8950000.0,11188.0,2.0,400.0,1.0,Resale,Semi,2.0,villa,,,,4.925462484520326,4.925303209291644,1.015215233822327,0.1107,-0.10574639684619686,-0.02505745062325906,-0.8528066194486259
246,2 BHK Apartment for Sale in Janatha Colony Madhuranagara Bangalore,11500000.0,9426.0,2.0,800.0,23.0,New Property,Unfurnished,2.0,apartment,12.94162601,77.74251723,Patel Layout,-0.20028119685994175,-0.2046933635568835,1.015215233822327,0.4365,-0.09407744459805538,-0.03634578592957929,-0.6447029268450716
247,"2 BHK Apartment for Sale in Bellandur, Outer Ring Road Bangalore",25000000.0,18643.0,2.0,882.0,10.0,New Property,Unfurnished,2.0,apartment,12.9145263,77.6845091,Kaikondrahalli,-0.20467329306357634,-0.1916897084601985,1.015215233822327,0.4363,-0.03230063857848285,0.02270335511375416,-0.602041669861343
248,2 BHK Apartment for Sale in Abbaiah Reddy Layout Bangalore,10400000.0,7109.0,2.0,1000.0,2.0,New Property,Unfurnished,2.0,apartment,12.97927795,77.68290299,Kondappa Layout,-0.20641634469596046,-0.20318338985581694,-0.8919718211379095,0.6144,-0.09911111027372424,-0.05118975466098903,-0.5406510805432945
249,2 BHK Apartment for Sale in Bagalur Main Road Bangalore,6870000.0,8600.0,2.0,482.0,12.0,New Property,Unfurnished,2.0,apartment,13.1215691,77.62140164,Kattigenahalli,-0.20413166685012363,-0.22752178174800816,1.015215233822327,0.4381,-0.11526460103291618,-0.04163759351358639,-0.8101453624648972
250,2 BHK Apartment for Sale in Sarjapur Road Bangalore,9050000.0,7243.0,2.0,1250.0,3.0,Resale,Unfurnished,2.0,apartment,12.91235,77.680996,Kaikondrahalli,-0.20602243472254034,-0.19305067159865977,1.015215233822327,0.4365,-0.10528879087568149,-0.05033127740159805,-0.4105862726660731
251,2 BHK Apartment for Sale in Thanisandra Main Road Bangalore,12800000.0,11700.0,2.0,1094.0,22.0,Resale,Semi,2.0,apartment,13.0793944,77.64211941,Devin Paradise Enclave,-0.20412181910078814,-0.2241839451456505,1.015215233822327,0.4379,-0.0881285669813558,-0.021777298706780086,-0.49174671278145926
252,2 BHK Apartment for Sale in Phase 1 Electronics City Bangalore,11800000.0,10146.0,2.0,850.0,6.0,Resale,Semi,2.0,apartment,12.840731,77.658189,Electronic City Phase I,-0.2007735843267169,-0.1922857507106195,-0.939857903037344,0.6172,-0.09270462668650932,-0.03173307229703073,-0.6186899652696274
253,2 BHK  House for Sale in Jigani Industrial Area Bangalore,3200000.0,5333.0,2.0,570.0,1.0,Resale,Unfurnished,1.0,house,12.80522346496582,77.62818908691406,Koppa,-0.18393393296300584,-0.1693281900319036,1.015215233822327,0.4332,-0.13205874015082958,-0.06256778162127548,-0.7643625500921153
254,2 BHK Apartment for Sale in Hennur Main Road Bangalore,10100000.0,8948.0,2.0,1130.0,1.0,Resale,Semi,3.0,apartment,13.01251945,77.6257917,Saint Thomas Town,-0.21370367920423308,-0.21080279662369883,-0.8484890571142849,0.6119,-0.1004839281852703,-0.039408115257854585,-0.47301738044713937
255,2 BHK Apartment for Sale in VN Groups Bangalore,7900000.0,7900.0,2.0,956.0,2.0,Resale,Furnished,2.0,apartment,,,,4.925462484520326,4.925303209291644,1.015215233822327,0.1107,-0.11055125953660805,-0.046122176211897487,-0.5635424867296854
256,2 BHK Apartment for Sale in Malleshwaram Bangalore,21000000.0,14789.0,2.0,1420.0,9.0,Resale,Semi,2.0,apartment,12.992801,77.570698,Malleshwaram,-0.22073497222978264,-0.21250151703739872,-1.1330534748385108,0.6351,-0.050604877399096936,-0.001987475913804385,-0.32214220330956256
257,2 BHK Villa for Sale in shalvi garden Bangalore,8950000.0,11188.0,2.0,800.0,1.0,Resale,Furnished,2.0,villa,,,,4.925462484520326,4.925303209291644,1.015215233822327,0.1107,-0.10574639684619686,-0.02505745062325906,-0.6447029268450716
258,2 BHK Apartment for Sale in Varthur Bangalore,16000000.0,12214.0,2.0,1310.0,19.0,New Property,Unfurnished,2.0,apartment,12.94162601,77.74251723,Patel Layout,-0.20028119685994175,-0.2046933635568835,1.015215233822327,0.4365,-0.07348517592486453,-0.018484333696877363,-0.37937071877553996
259,2 BHK Apartment for Sale in Whitefield Bangalore,15500000.0,12450.0,2.0,1245.0,17.0,Resale,Semi,2.0,apartment,13.024418757051512,77.7619875371977,Ardendale,-0.1962436196323853,-0.21464726913891435,-0.9756348607783006,0.6207,-0.07577320577744129,-0.016972388672875333,-0.4131875688236175
260,2 BHK Apartment for Sale in Bannerghatta Main Road Bangalore,10500000.0,8537.0,2.0,1230.0,2.0,Resale,Semi,2.0,apartment,12.880823765459995,77.60847729999998,Muthuraya Swamy Layout,-0.20863208829644875,-0.19910050044043304,-0.8930726506068618,0.6145,-0.09865350430320889,-0.04204120595643439,-0.4209914572962508
261,2 BHK Apartment for Sale in Hulimangala Bangalore,10400000.0,9000.0,2.0,890.0,1.0,New Property,Unfurnished,2.0,apartment,12.8339509,77.675366,Veer Sandra,-0.20030089235861276,-0.19180891691028268,-1.1137889591318417,0.6307,-0.09911111027372424,-0.039074974828837185,-0.5978795960092719
262,"2 BHK  House for Sale in Kowdenahalli, Ramamurthi Nagar Bangalore",14000000.0,11667.0,2.0,1200.0,1.0,Resale,Semi,3.0,house,13.020012855529783,77.67707061767578,Kowdenahalli,-0.2029597846791987,-0.2078722555591289,-0.8650014991485727,0.6121,-0.08263729533517157,-0.021988714748271895,-0.43659923424151736
263,2 BHK Apartment for Sale in Block 1st East Jayanagar Bangalore,15000000.0,10714.0,2.0,959.0,8.0,Resale,Unfurnished,2.0,apartment,12.94025421142578,77.58772277832031,1st Block,-0.21641181027149656,-0.20624307340797812,-1.0758103424529797,0.6301,-0.07806123563001806,-0.028094153764686863,-0.5619817090351588
266,2 BHK Apartment for Sale in Sarjapura Attibele Road Bangalore,5990000.0,5209.0,2.0,1150.0,6.0,Resale,Unfurnished,2.0,apartment,12.810395,77.784537,Bidaraguppe,-0.18476114390718815,-0.18752734674475846,1.015215233822327,0.4342,-0.11929153357345128,-0.06336219341354773,-0.46261219581696167
267,2 BHK Apartment for Sale in Gottigere Bangalore,15000000.0,12346.0,2.0,1215.0,0.0,Resale,Furnished,2.0,apartment,12.87052719,77.59332459,Kalena Agrahara,-0.2081790918270156,-0.19864353471511026,-0.8149137583112332,0.6079,-0.07806123563001806,-0.017638669530910128,-0.42879534576888406
268,2 BHK Apartment for Sale in Horamavu Bangalore,7500000.0,6938.0,2.0,1081.0,0.0,Resale,Semi,2.0,apartment,13.04579197,77.68166015,K Channasandra,-0.20175835926026728,-0.2182831268664825,1.015215233822327,0.4374,-0.11238168341866946,-0.052285274148719314,-0.4985100827910748
270,6 BHK  House for Sale in KB Sandra Shampura Bangalore,22500000.0,4688.0,6.0,4500.0,4.0,Resale,Semi,5.0,house,13.025201797485352,77.60982513427734,Chinnanna Layout,-0.21301433675074785,-0.21423003956361966,1.015215233822327,0.4383,-0.04374078784136665,-0.06670000425043357,1.280256229737805
271,2 BHK Apartment for Sale in Old Madras Road Bangalore,13000000.0,10000.0,2.0,1200.0,5.0,Resale,Semi,3.0,apartment,12.991186141967772,77.61978149414062,R T Nagar,-0.2150725163618681,-0.21065378606109358,-0.9706811281680146,0.622,-0.0872133550403251,-0.03266842811696419,-0.43659923424151736
272,2 BHK  House for Sale in BTM 2nd Stage Bangalore,11200000.000000002,18667.0,2.0,530.0,0.0,Resale,Semi,4.0,house,12.805724143981934,77.60187530517578,Malle Nalsandra,-0.18794196694255577,-0.1733812773347665,1.015215233822327,0.4338,-0.09545026250960141,0.022857112234839112,-0.7851729193524707
273,9 BHK  House for Sale in Reflex Housing Layout Bangalore,75000000.0,11628.0,9.0,6450.0,1.0,Resale,Unfurnished,6.0,house,12.90481156,77.50705255,Reflex Housing Layout,-0.2100895551981033,-0.1957129936505403,-0.9150892399859123,0.6163,0.19650234667919317,-0.022238570070034942,2.2947617311801323
274,2 BHK Apartment for Sale in Gunjur Palya Bangalore,12000000.0,9967.0,2.0,1100.0,3.0,Resale,Semi,2.0,apartment,12.924330711364746,77.7215347290039,Gunjur Palya,-0.20078343207605243,-0.19994489362852946,1.015215233822327,0.4364,-0.09178941474547861,-0.032879844158456,-0.4886251573924059
275,2 BHK Apartment for Sale in Chandrasekarapura Bangalore,13000000.0,12381.0,2.0,740.0,0.0,Resale,Semi,2.0,apartment,12.87052719,77.59332459,Kalena Agrahara,-0.2081790918270156,-0.19864353471511026,-0.8149137583112332,0.6079,-0.0872133550403251,-0.01741444039599457,-0.6759184807356048
276,"2 BHK Apartment for Sale in Chokkanahalli, Thanisandra Main Road Bangalore",8980000.0,7072.0,2.0,1269.0,1.0,Resale,Semi,2.0,apartment,13.086003532768,77.6228965682728,Sampigehalli,-0.20343247664730288,-0.220349406667942,1.015215233822327,0.4376,-0.10560911505504225,-0.05142679688932834,-0.40070134726740425
277,2 BHK Apartment for Sale in Borewell Road Bangalore,17000000.0,11972.0,2.0,873.0,8.0,Resale,Unfurnished,2.0,apartment,12.9680475,77.739097,Palm Meadows,-0.20176820700960277,-0.20705766448355348,-1.0565458267463108,0.6272,-0.06890911621971102,-0.020034718001150628,-0.606724002944923
278,6 BHK  House for Sale in Bommasandra Jigani Link Road Bangalore,12500000.0,4630.0,6.0,2200.0,1.0,Resale,Unfurnished,6.0,house,12.8062366,77.6633302,Bengaluru,-0.19451041574933667,-0.1859677028561568,-0.8908709916689569,0.6123,-0.08950138489290185,-0.06707158395972221,0.08365999726736824
279,"2 BHK Apartment for Sale in Rachenahalli, Thanisandra Bangalore",8000000.0,7117.0,2.0,1100.0,2.0,Resale,Semi,2.0,apartment,13.068320274353027,77.57221221923828,Sonappa Layout,-0.2093706694966115,-0.21902817967950877,1.015215233822327,0.4382,-0.1100936535660927,-0.05113850228729405,-0.4886251573924059
280,2 BHK Apartment for Sale in Electronic City Bangalore,10000000.0,7519.0,2.0,1330.0,2.0,Resale,Semi,2.0,apartment,12.8606607,77.6610466,Lavakusha Nagar,-0.18587393958210005,-0.19481893027490876,-1.0873690518769812,0.6274,-0.10094153415578566,-0.0485630705091211,-0.36896553414536226
281,2 BHK Apartment for Sale in Thanisandra Main Road Bangalore,19900000.0,14974.0,2.0,902.0,17.0,Resale,Unfurnished,2.0,apartment,13.06430096,77.6341299,Narayanapura,-0.20723370789080725,-0.21729965715328783,1.015215233822327,0.4379,-0.0556385430747658,-0.0008022647721078795,-0.5916364852311653
282,2 BHK Apartment for Sale in Sarjapur Road Bangalore,16500000.0,14423.0,2.0,640.0,3.0,Resale,Semi,2.0,apartment,12.91235,77.680996,Kaikondrahalli,-0.20602243472254034,-0.19305067159865977,1.015215233822327,0.4365,-0.07119714607228778,-0.004332272010349903,-0.7279444038864933
283,2 BHK Apartment for Sale in Whitefield Bangalore,11500000.0,10035.0,2.0,1000.0,0.0,Resale,Semi,2.0,apartment,12.982587692174135,77.75532781349413,Ambedkar Nagar,-0.1990502281930038,-0.20936236118518142,-1.1198435212110804,0.6319,-0.09407744459805538,-0.03244419898204863,-0.5406510805432945
285,2 BHK Apartment for Sale in Whitefield Bangalore,11500000.0,10026.0,2.0,1147.0,6.0,Resale,Semi,2.0,apartment,12.982587692174135,77.75532781349413,Ambedkar Nagar,-0.1990502281930038,-0.20936236118518142,-1.1198435212110804,0.6319,-0.09407744459805538,-0.03250185790245549,-0.4641729735114883
286,2 BHK Builder Floor for Sale in Shanti Nagar Bangalore,10000000.0,9709.0,2.0,,3.0,Resale,Furnished,2.0,apartment,12.971689224243164,77.5224380493164,Shivananada Layout,-0.21517099385522312,-0.20403771708142038,-0.9508661977268691,0.6201,-0.10094153415578566,-0.03453273321011923,-0.2545085032134074
287,10 BHK Villa for Sale in Rachenahalli Main Road Bangalore,34500000.0,5750.0,10.0,1200.0,1.0,Resale,Furnished,10.0,villa,13.04881191253662,77.62667083740234,Fathima Layout,-0.20886843428050084,-0.21616717687748793,1.015215233822327,0.438,0.01117192862047559,-0.059896251642424445,-0.43659923424151736
288,> 10 BHK  House for Sale in Hoodi Main Road Bangalore,40000000.0,7143.0,10.0,5300.0,1.0,Resale,Semi,,house,13.048640251159668,77.62638092041016,Fathima Layout,-0.20866163154445527,-0.21617711091499492,1.015215233822327,0.4379,0.03634025699881995,-0.05097193207278535,1.6964636149449137
290,2 BHK Apartment for Sale in Ulsoor Bangalore,15000000.0,12821.0,2.0,1170.0,1.0,Resale,Semi,2.0,apartment,,,,4.925462484520326,4.925303209291644,1.015215233822327,0.1107,-0.07806123563001806,-0.01459555984277045,-0.4522070111867839
291,2 BHK Builder Floor for Sale in Kalena Agrahara Bangalore,5000000.0,4699.0,2.0,856.0,2.0,Resale,Semi,2.0,apartment,12.8643492,77.5923249,Kalena Agrahara,-0.19254086588223596,-0.19729250561415598,1.015215233822327,0.4354,-0.12382183268155325,-0.06662953223660296,-0.615568409880574
292,2 BHK Apartment for Sale in ITI Layout HSR Layout Bangalore,14900000.0,12957.0,2.0,1050.0,4.0,Resale,Semi,2.0,apartment,12.9114311,77.6445763,Parangi Palaya,-0.20893736852584938,-0.1915108957850722,-0.9216942167996275,0.6165,-0.0785188416005334,-0.013724269489955723,-0.5146381189678502
293,2 BHK Apartment for Sale in Gunjur Palya Road Bangalore,10000000.0,7943.0,2.0,1040.0,2.0,Resale,Furnished,2.0,apartment,12.92050187,77.73493118,Gunjur Village,-0.20001530762788314,-0.2022098541801293,1.015215233822327,0.4364,-0.10094153415578566,-0.04584669470328695,-0.5198407112829391
294,"2 BHK Apartment for Sale in Gubbalala, Subramanyapura Bangalore",11000000.0,8980.0,2.0,900.0,8.0,Resale,Semi,2.0,apartment,12.8856966591352,77.5364000701981,Bengaluru,-0.2062784762052634,-0.18688163430680232,-1.0730582687805985,0.6279,-0.09636547445063214,-0.03920310576307465,-0.5926770036941831
295,2 BHK Apartment for Sale in Ejipura Bangalore,12000000.0,9023.0,2.0,1150.0,4.0,Resale,Semi,2.0,apartment,12.971566200256348,77.52252197265625,Shivananada Layout,-0.21522023260190062,-0.20401784900640635,-0.9536182713992504,0.6203,-0.09178941474547861,-0.03892762425446411,-0.46261219581696167
296,2 BHK Apartment for Sale in Banaswadi Bangalore,14400000.0,11940.0,2.0,1106.0,3.0,Resale,Semi,2.0,apartment,13.0073266,77.6463528,Chikka Banaswadi,-0.2109758526382986,-0.21027629263582695,-0.965727395557728,0.6212,-0.08080687145311016,-0.020239727495930563,-0.48550360200335263
297,2 BHK Apartment for Sale in Begur Koppa Road Bangalore,12000000.0,9562.0,2.0,1255.0,14.0,Resale,Semi,2.0,apartment,12.888731,77.625587,Maruthi Layout,-0.20868132704312628,-0.20027271686626102,-1.010310989050305,0.624,-0.09178941474547861,-0.03547449557676456,-0.40798497650852866
298,2 BHK Apartment for Sale in Sarjapur Road Bangalore,17000000.0,14860.0,2.0,636.0,4.0,Resale,Semi,2.0,apartment,12.91235,77.680996,Kaikondrahalli,-0.20602243472254034,-0.19305067159865977,1.015215233822327,0.4365,-0.06890911621971102,-0.0015326110972614015,-0.7300254408125288
299,2 BHK Apartment for Sale in Electronic City Bangalore,16500000.0,14628.0,2.0,1128.0,18.0,New Property,Semi,2.0,apartment,12.833950996398926,77.67536926269531,Veer Sandra,-0.20030089235861276,-0.19180891691028268,-1.1137889591318417,0.6307,-0.07119714607228778,-0.003018929934415938,-0.47405789891015715
300,2 BHK Apartment for Sale in Bilekahalli Bangalore,4700000.0,4476.0,2.0,940.0,2.0,Resale,Semi,3.0,apartment,12.8914298,77.6004377,Sundar Ram Shetty Nagar,-0.2100895551981033,-0.20058067202897853,-0.872156890696764,0.613,-0.1251946505930993,-0.06805819215335064,-0.5718666344338277
301,2 BHK Apartment for Sale in ITPL Main Road Bangalore,16500000.0,13866.0,2.0,1090.0,13.0,Resale,Semi,2.0,apartment,12.98294448852539,77.75520324707031,Ambedkar Nagar,-0.1990896191903458,-0.20940209733520948,-1.1214947654145093,0.632,-0.07119714607228778,-0.007900718528863164,-0.49382774970749477
302,2 BHK Apartment for Sale in Arkavathy Layout Babusabpalya Bangalore,7000000.0,6481.0,2.0,1080.0,2.0,Resale,Semi,2.0,apartment,13.0284213547426,77.6487722829392,Anand Bhavan,-0.2061898464612439,-0.2111405538989374,1.015215233822327,0.4374,-0.11466971327124621,-0.05521306599604528,-0.4990303420225836
303,2 BHK Apartment for Sale in Mahadevapura Bangalore,12000000.0,9764.0,2.0,1229.0,4.0,Resale,Semi,2.0,apartment,12.9943233940264,77.7036578845133,Kaveri Nagar,-0.20525431027437105,-0.20331253234340815,-1.1803891420034691,0.6366,-0.09178941474547861,-0.03418037314096622,-0.4215117165277597
304,> 10 BHK  House for Sale in Gunjur Balagere Road Bangalore,66000000.0,7416.0,10.0,8900.0,0.0,New Property,Semi,,house,13.026813507080078,77.60852813720703,KHB Colony,-0.2129060115080573,-0.21413069918854946,1.015215233822327,0.4383,0.1553178093328115,-0.04922294482044402,3.569396848376902
305,"6 BHK Apartment for Sale in D Costa Layout, Cooke Town Bangalore",60000000.0,10345.0,6.0,5000.0,4.0,New Property,Furnished,5.0,apartment,13.002951,77.623452,Balaji Layout,-0.21451119464974439,-0.20958091001033577,-0.9145388252514359,0.6174,0.12786145110189034,-0.030458169501368003,1.5403858454922479
306,6 BHK  House for Sale in Naagarabhaavi Bangalore,100000000.0,10526.0,6.0,9500.0,1.0,Resale,Semi,6.0,house,12.97089643,77.51255603,10 Block,-0.21388093869227215,-0.2052794717697975,-0.9156396547203887,0.6172,0.31090383930803117,-0.02929858454651899,3.8815523872822335
307,"6 BHK  House for Sale in Williams Town, Benson Town Bangalore",26100000.0,10440.0,6.0,2300.0,0.0,Resale,Semi,5.0,house,12.97152328491211,77.52254486083984,Shivananada Layout,-0.21522023260190062,-0.20402778304391336,-0.9536182713992504,0.6203,-0.02726697290281398,-0.029849547563740066,0.1356859204182568
308,2 BHK Apartment for Sale in Old Madras Road Bangalore,15000000.0,10135.0,2.0,1200.0,13.0,Resale,Semi,2.0,apartment,12.98691162,77.64796731,Binna Mangala,-0.21135991486238326,-0.206163601107922,-1.063150803560026,0.6286,-0.07806123563001806,-0.03180354431086133,-0.43659923424151736
309,2 BHK Apartment for Sale in Thanisandra Bangalore,13000000.0,10277.0,2.0,1265.0,23.0,Resale,Semi,3.0,apartment,13.05820369720459,77.62102508544922,Manyata Residency,-0.20927219200325647,-0.21733939330331592,1.015215233822327,0.4381,-0.0872133550403251,-0.030893814677775366,-0.4027823841934398
310,"7 BHK  House for Sale in Vijinapura, Dooravani Nagar Bangalore",22500000.0,9000.0,7.0,2300.0,0.0,Resale,Semi,7.0,house,13.048593521118164,77.62640380859375,Fathima Layout,-0.20887828202983633,-0.21617711091499492,1.015215233822327,0.438,-0.04374078784136665,-0.039074974828837185,0.1356859204182568
311,2 BHK Apartment for Sale in Whitefield Bangalore,21500000.0,18037.0,2.0,826.0,11.0,Resale,Semi,2.0,apartment,12.9680475,77.739097,Palm Meadows,-0.20176820700960277,-0.20705766448355348,-1.0565458267463108,0.6272,-0.04831684754652017,0.018820987806359123,-0.6311761868258405
312,2 BHK Apartment for Sale in Hallehalli Bangalore,5300000.0,4454.0,2.0,1190.0,2.0,Resale,Semi,2.0,apartment,13.034451484680176,77.7027359008789,A - Block,-0.19999561212921216,-0.21726985504076682,1.015215233822327,0.4371,-0.1224490147700072,-0.06819913618101185,-0.4418018265566062
313,2 BHK Apartment for Sale in Uttarahalli Hobli Bangalore,9500000.0,8311.0,2.0,900.0,4.0,New Property,Semi,2.0,apartment,12.90569188,77.54735071,Appartment,-0.21027666243547785,-0.19506728121258418,-0.8622494254761914,0.6119,-0.10322956400836242,-0.043489085513317684,-0.5926770036941831
314,2 BHK Apartment for Sale in Electronic City Bangalore,15300000.0,13564.0,2.0,800.0,5.0,Resale,Semi,2.0,apartment,12.8339509,77.675366,Veer Sandra,-0.20030089235861276,-0.19180891691028268,-1.1137889591318417,0.6307,-0.076688417718472,-0.00983549563584881,-0.6447029268450716
315,2 BHK Apartment for Sale in Avalahalli Bangalore,16000000.0,12270.0,2.0,923.0,13.0,Resale,Furnished,2.0,apartment,12.87752628326416,77.70675659179688,Margagondanahalli,-0.19952292016110795,-0.1864842728065217,1.015215233822327,0.4356,-0.07348517592486453,-0.018125567081012473,-0.5807110413694787
316,2 BHK Apartment for Sale in Bagalur Main Road Bangalore,8700000.0,10943.0,2.0,795.0,21.0,Resale,Unfurnished,2.0,apartment,13.1212475,77.6176454,Vinayak Nagar,-0.20453542457287927,-0.2279191432482888,1.015215233822327,0.4381,-0.10689041177248523,-0.026627054567667948,-0.647304223002616
317,6 BHK Villa for Sale in Ramchandrapura Main Road Bangalore,36000000.0,5625.0,6.0,5800.0,1.0,New Property,Semi,5.0,villa,13.020346641540527,77.60848236083984,D Nagaraj Layout,-0.21322113948679344,-0.21444858838877404,1.015215233822327,0.4383,0.01803601817820587,-0.060697069981408565,1.9565932306993563
318,2 BHK Apartment for Sale in Devanahalli Bangalore,15000000.0,10799.0,2.0,1389.0,6.0,New Property,Semi,2.0,apartment,13.240327835083008,77.71505737304688,Devanahalli,-0.18646480454223024,-0.23140599041325172,1.015215233822327,0.4365,-0.07806123563001806,-0.02754959729417766,-0.338270239486338
319,2 BHK  House for Sale in NS Palya Bangalore,16200000.000000002,15500.0,2.0,1000.0,1.0,Resale,Unfurnished,2.0,house,12.90810489654541,77.60379791259766,Dollar Layout,-0.21184245457982293,-0.2023389966677205,-0.9613240776819181,0.6205,-0.07256996398383382,0.002567578798337319,-0.5406510805432945
320,2 BHK Apartment for Sale in T Dasarahalli Bangalore,12500000.0,6983.0,2.0,1410.0,1.0,Resale,Semi,2.0,apartment,13.05060507,77.51442958,Kalyan Nagar,-0.21059179041421397,-0.20868684663470427,-1.1236964243524143,0.6332,-0.08950138489290185,-0.05199697954668503,-0.3273447956246514
321,2 BHK  House for Sale in Babusapalya Bangalore,21700000.0,12365.0,2.0,1755.0,1.0,Resale,Unfurnished,2.0,house,13.022793769836426,77.65267944335938,Chikka Nanjunda Reddy Layout,-0.2064951266906445,-0.21144850906165494,-0.8270228824697108,0.6094,-0.04740163560548947,-0.01751694514338454,-0.14785536075408587
322,"2 BHK Apartment for Sale in Kumaraswamy Layout, Kumaraswamy Layout Bangalore",6500000.0,6842.0,2.0,912.0,4.0,Resale,Furnished,2.0,apartment,12.90309411,77.56308947,Kumaraswamy Layout II Stage,-0.21228560329992058,-0.20218998610511527,-1.101679834973364,0.6315,-0.11695774312382298,-0.05290030263305912,-0.5864338929160764
323,2 BHK  House for Sale in Shanti Nagar Bangalore,55000000.0,19524.0,2.0,2817.0,1.0,Resale,Semi,2.0,house,12.956124305725098,77.59931182861328,KSRTC Colony,-0.2170519139783043,-0.20718680697114472,-0.9971010354228748,0.6241,0.10498115257612275,0.028347522766914275,0.40465994310835063
325,2 BHK Apartment for Sale in Lal Bagh Main Road Bangalore,100000000.0,41667.0,2.0,2400.0,5.0,Resale,Furnished,2.0,apartment,12.95915273,77.58687485,K.S. Garden,-0.2188934431040435,-0.20904447198495685,-1.0895707108148862,0.6315,0.31090383930803117,0.17020768660791816,0.18771184356914536
326,2 BHK Villa for Sale in Nelamangala Town Bangalore,45000000.0,37500.0,2.0,900.0,1.0,Resale,Furnished,1.0,villa,13.09756658,77.38554364,Nelamangala Town,-0.19248177938622293,-0.18971283499630215,1.015215233822327,0.435,0.059220555524587555,0.14351160645954336,-0.5926770036941831
327,6 BHK  House for Sale in Bangalore,20000000.0,6667.0,6.0,1560.0,1.0,Resale,Unfurnished,4.0,house,,,,4.925462484520326,4.925303209291644,1.015215233822327,0.1107,-0.055180937104250455,-0.0540214483076369,-0.24930591089831855
328,2 BHK Apartment for Sale in Gunjur Road Bangalore,15100000.0,11227.0,2.0,990.0,11.0,Resale,Unfurnished,2.0,apartment,12.8539625,77.7889754,Infosys Head Quater,-0.19116218097526547,-0.19132214907243886,1.015215233822327,0.435,-0.0776036296595027,-0.024807595301496014,-0.5458536728583834
329,2 BHK Apartment for Sale in Abbigere Bangalore,7500000.0,6562.0,2.0,1100.0,1.0,Resale,Semi,2.0,apartment,13.0733419823716,77.5214442247732,Lakshmaiah Layout,-0.2076670088615694,-0.21020675437327782,-0.9172908989238173,0.617,-0.11238168341866946,-0.05469413571238357,-0.4886251573924059
330,2 BHK Apartment for Sale in T Dasarahalli Bangalore,15900000.0,15143.0,2.0,1175.0,16.0,New Property,Semi,2.0,apartment,13.05241056,77.52939049,Siddhartha Nagar,-0.21138945811038976,-0.21169685999933036,-0.9717819576369671,0.6218,-0.07394278189537988,0.00028044162219865765,-0.4496057150292395
331,2 BHK Apartment for Sale in Adigara Kallahalli Bangalore,4600000.0,4523.0,2.0,700.0,1.0,Resale,Unfurnished,2.0,apartment,12.831819,77.798135,Adigara Kallahalli,-0.1808121964236512,-0.18872936528310746,1.015215233822327,0.4338,-0.12565225656361467,-0.06775708445789261,-0.6967288499959602
333,2 BHK Apartment for Sale in Hennur Main Road Bangalore,10500000.0,9615.0,2.0,1092.0,10.0,Resale,Furnished,2.0,apartment,13.0339977023756,77.6363543787745,Punappa Layout,-0.21073950665424654,-0.219763298455028,1.015215233822327,0.4383,-0.09865350430320889,-0.03513494860103529,-0.49278723124447704
334,2 BHK Apartment for Sale in Thanisandra Main Road Bangalore,13500000.0,11460.0,2.0,835.0,14.0,Resale,Unfurnished,2.0,apartment,13.07709976,77.63375253,Devin Paradise Enclave,-0.2059731959758628,-0.2213626784936577,1.015215233822327,0.4379,-0.08492532518774834,-0.023314869917629606,-0.6264938537422606
335,2 BHK  House for Sale in Paschim Layout Bangalore,16500000.0,13750.0,2.0,900.0,1.0,Resale,Unfurnished,2.0,house,,,,4.925462484520326,4.925303209291644,1.015215233822327,0.1107,-0.07119714607228778,-0.008643877947440433,-0.5926770036941831
336,2 BHK Apartment for Sale in Sarjapur Road Bangalore,12000000.0,12158.0,2.0,987.0,6.0,Resale,Unfurnished,2.0,apartment,12.91235,77.680996,Kaikondrahalli,-0.20602243472254034,-0.19305067159865977,1.015215233822327,0.4365,-0.09178941474547861,-0.01884310031274225,-0.54741445055291
337,2 BHK Apartment for Sale in Whitefield Main Road Bangalore,14300000.0,10669.0,2.0,987.0,14.0,Resale,Unfurnished,2.0,apartment,12.990574,77.722769,Thigalarapalya,-0.20340293339929635,-0.201434999254582,-1.014714306926115,0.6239,-0.08126447742362551,-0.028382448366721148,-0.54741445055291
338,2 BHK Apartment for Sale in Balagere Road Bangalore,12000000.0,9592.0,2.0,904.0,8.0,Resale,Semi,2.0,apartment,12.938639926659985,77.73125836912878,Balagere,-0.20194546649764183,-0.2030343792932117,1.015215233822327,0.4366,-0.09178941474547861,-0.03528229917540837,-0.5905959667681475
339,2 BHK Apartment for Sale in Banashankari Bangalore,12000000.0,8889.0,2.0,1200.0,1.0,Resale,Unfurnished,2.0,apartment,12.92547062,77.54676887,Ittamadu,-0.21330976923081293,-0.1981269647647454,-0.8980263832171483,0.6153,-0.09178941474547861,-0.03978610151385509,-0.43659923424151736
340,2 BHK Apartment for Sale in Gunjur Bangalore,13000000.0,10000.0,2.0,1080.0,11.0,Resale,Unfurnished,2.0,apartment,12.92050187,77.73493118,Gunjur Village,-0.20001530762788314,-0.2022098541801293,1.015215233822327,0.4364,-0.0872133550403251,-0.03266842811696419,-0.4990303420225836
341,2 BHK Apartment for Sale in Sarjapura Bangalore,13000000.0,11786.0,2.0,776.0,11.0,Resale,Unfurnished,2.0,apartment,12.91235,77.680996,Kaikondrahalli,-0.20602243472254034,-0.19305067159865977,1.015215233822327,0.4365,-0.0872133550403251,-0.021226335689559006,-0.6571891484012848
342,2 BHK Apartment for Sale in Prakruthi Nagar Kogilu Bangalore,11500000.0,11443.0,2.0,1005.0,6.0,Resale,Unfurnished,2.0,apartment,13.0992238,77.609323,Prakruthi Nagar,-0.20522476702636455,-0.22400513247052417,1.015215233822327,0.438,-0.09407744459805538,-0.023423781211731446,-0.53804978438575
343,2 BHK Villa for Sale in Hosur Road Bangalore,12000000.0,5455.0,2.0,1200.0,1.0,Resale,Unfurnished,2.0,villa,12.7788552,77.7307659,Madivala,-0.19132959271396902,-0.18276894277889738,1.015215233822327,0.4346,-0.09178941474547861,-0.06178618292242698,-0.43659923424151736
344,2 BHK Apartment for Sale in Sarjapur Road Bangalore,12000000.0,11483.0,2.0,400.0,3.0,New Property,Furnished,2.0,apartment,12.91235,77.680996,Kaikondrahalli,-0.20602243472254034,-0.19305067159865977,1.015215233822327,0.4365,-0.09178941474547861,-0.023167519343256525,-0.8528066194486259
345,2 BHK Builder Floor for Sale in Bannerghatta Main Road Bangalore,5400000.0,4576.0,2.0,980.0,2.0,Resale,Unfurnished,2.0,apartment,12.87052719,77.59332459,Kalena Agrahara,-0.2081790918270156,-0.19864353471511026,-0.8149137583112332,0.6079,-0.12199140879949184,-0.06741753748216335,-0.5510562651734722
346,2 BHK Builder Floor for Sale in Chandra Layout Bangalore,13000000.0,6842.0,2.0,919.0,3.0,Resale,Semi,2.0,apartment,12.953832626342772,77.52336883544922,Bengaluru,-0.21443241265506036,-0.20200123939248196,-1.0846169782045998,0.6304,-0.0872133550403251,-0.05290030263305912,-0.5827920782955143
347,2 BHK Apartment for Sale in Bagaluru Bangalore,11900000.0,10897.0,2.0,1092.0,10.0,Resale,Unfurnished,2.0,apartment,13.13235055,77.66755368,Dasanayakanahalli,-0.1982230172488215,-0.23209143900123588,1.015215233822327,0.4377,-0.09224702071599397,-0.026921755716414104,-0.49278723124447704
348,2 BHK Apartment for Sale in Whitefield Main Road Bangalore,13600000.000000002,10149.0,2.0,987.0,5.0,Resale,Unfurnished,2.0,apartment,12.990574,77.722769,Thigalarapalya,-0.20340293339929635,-0.201434999254582,-1.014714306926115,0.6239,-0.08446771921723296,-0.03171385265689511,-0.54741445055291
349,2 BHK Apartment for Sale in Immadihalli Main Road Bangalore,37500000.0,14423.0,2.0,2600.0,1.0,Resale,Semi,2.0,apartment,12.96982855,77.76635054,Whitefield,-0.19949337691310146,-0.2074152898338061,-0.9613240776819181,0.6196,0.02490010773593615,-0.004332272010349903,0.2917636898709225
350,2 BHK Apartment for Sale in Whitefield Main Road Bangalore,14300000.0,10669.0,2.0,987.0,10.0,Resale,Unfurnished,2.0,apartment,12.990574,77.722769,Thigalarapalya,-0.20340293339929635,-0.201434999254582,-1.014714306926115,0.6239,-0.08126447742362551,-0.028382448366721148,-0.54741445055291
351,2 BHK Apartment for Sale in Whitefield Bangalore,6500000.0,5508.0,2.0,950.0,0.0,Resale,Furnished,2.0,apartment,12.9760455,77.7549168,Sathya Sai Layout,-0.1995918544064565,-0.20887559334733757,-1.092873199221744,0.6299,-0.11695774312382298,-0.061446635946697706,-0.5666640421187388
352,2 BHK Apartment for Sale in Thanisandra Main Road Bangalore,11000000.0,10036.0,2.0,934.0,2.0,Resale,Semi,2.0,apartment,13.077099800109863,77.63375091552734,Devin Paradise Enclave,-0.2059731959758628,-0.2213626784936577,1.015215233822327,0.4379,-0.09636547445063214,-0.03243779243533676,-0.5749881898228809
